[
  {
    "id": 461699,
    "city": "Сасово",
    "city_district_with_type": "",
    "federal_district": "Центральный",
    "geo_lat": "54.35337",
    "geo_lon": "41.918694",
    "street_with_type": "ул Тюрина",
    "region_with_type": "Рязанская обл"
  },
  {
    "id": 452949,
    "city": "Удомля",
    "city_district_with_type": "",
    "federal_district": "Центральный",
    "geo_lat": "57.879401",
    "geo_lon": "34.991842",
    "street_with_type": "пер Свердлова",
    "region_with_type": "Тверская обл"
  },
  {
    "id": 452960,
    "city": "Бологое",
    "city_district_with_type": "",
    "federal_district": "Центральный",
    "geo_lat": "57.885626",
    "geo_lon": "34.053776",
    "street_with_type": "",
    "region_with_type": "Тверская обл"
  },
  {
    "id": 461705,
    "city": "Воронеж",
    "city_district_with_type": "",
    "federal_district": "Центральный",
    "geo_lat": "51.8807651",
    "geo_lon": "39.5877423",
    "street_with_type": "Вербный пер",
    "region_with_type": "Воронежская обл"
  },
  {
    "id": 461720,
    "city": "Костерево",
    "city_district_with_type": "",
    "federal_district": "Центральный",
    "geo_lat": "55.92981",
    "geo_lon": "39.61585",
    "street_with_type": "ул Вокзальная",
    "region_with_type": "Владимирская обл"
  },
  {
    "id": 461742,
    "city": "Раменское",
    "city_district_with_type": "",
    "federal_district": "Центральный",
    "geo_lat": "55.679478",
    "geo_lon": "38.123701",
    "street_with_type": "ул Новая Слобода",
    "region_with_type": "Московская обл"
  },
  {
    "id": 461794,
    "city": "Чехов",
    "city_district_with_type": "",
    "federal_district": "Центральный",
    "geo_lat": "55.25599",
    "geo_lon": "37.593354",
    "street_with_type": "",
    "region_with_type": "Московская обл"
  },
  {
    "id": 461835,
    "city": "Москва",
    "city_district_with_type": "р-н Зябликово",
    "federal_district": "Центральный",
    "geo_lat": "55.621002",
    "geo_lon": "37.747109",
    "street_with_type": "ул Шипиловская",
    "region_with_type": "г Москва"
  },
  {
    "id": 461862,
    "city": "Орехово-Зуево",
    "city_district_with_type": "",
    "federal_district": "Центральный",
    "geo_lat": "55.60042",
    "geo_lon": "39.243963",
    "street_with_type": "",
    "region_with_type": "Московская обл"
  },
  {
    "id": 461867,
    "city": "Данилов",
    "city_district_with_type": "",
    "federal_district": "Центральный",
    "geo_lat": "58.1833566",
    "geo_lon": "40.1672772",
    "street_with_type": "ул Свердлова",
    "region_with_type": "Ярославская обл"
  },
  {
    "id": 461910,
    "city": "Зверево",
    "city_district_with_type": "",
    "federal_district": "Южный",
    "geo_lat": "48.043493",
    "geo_lon": "40.126495",
    "street_with_type": "",
    "region_with_type": "Ростовская обл"
  },
  {
    "id": 461916,
    "city": "Звенигово",
    "city_district_with_type": "",
    "federal_district": "Приволжский",
    "geo_lat": "55.974373",
    "geo_lon": "48.018456",
    "street_with_type": "ул Бутякова",
    "region_with_type": "Респ Марий Эл"
  },
  {
    "id": 461920,
    "city": "Звенигород",
    "city_district_with_type": "",
    "federal_district": "Центральный",
    "geo_lat": "55.733128",
    "geo_lon": "36.847466",
    "street_with_type": "ул Красная Гора",
    "region_with_type": "Московская обл"
  },
  {
    "id": 461964,
    "city": "Зуевка",
    "city_district_with_type": "",
    "federal_district": "Приволжский",
    "geo_lat": "58.405097",
    "geo_lon": "51.133352",
    "street_with_type": "ул К.Маркса",
    "region_with_type": "Кировская обл"
  },
  {
    "id": 453080,
    "city": "Вышний Волочек",
    "city_district_with_type": "",
    "federal_district": "Центральный",
    "geo_lat": "57.710176",
    "geo_lon": "34.319165",
    "street_with_type": "",
    "region_with_type": "Тверская обл"
  },
  {
    "id": 462240,
    "city": "Жигулевск",
    "city_district_with_type": "",
    "federal_district": "Приволжский",
    "geo_lat": "53.444722",
    "geo_lon": "49.799051",
    "street_with_type": "",
    "region_with_type": "Самарская обл"
  },
  {
    "id": 462008,
    "city": "Зубцов",
    "city_district_with_type": "",
    "federal_district": "Центральный",
    "geo_lat": "56.17541",
    "geo_lon": "34.589603",
    "street_with_type": "ул Пролетарская",
    "region_with_type": "Тверская обл"
  },
  {
    "id": 462035,
    "city": "Кашира",
    "city_district_with_type": "",
    "federal_district": "Центральный",
    "geo_lat": "54.769876",
    "geo_lon": "38.304056",
    "street_with_type": "",
    "region_with_type": "Московская обл"
  },
  {
    "id": 462095,
    "city": "Сергиев Посад",
    "city_district_with_type": "",
    "federal_district": "Центральный",
    "geo_lat": "56.3063547",
    "geo_lon": "38.1502737",
    "street_with_type": "",
    "region_with_type": "Московская обл"
  },
  {
    "id": 462134,
    "city": "Мантурово",
    "city_district_with_type": "",
    "federal_district": "Центральный",
    "geo_lat": "58.33346",
    "geo_lon": "44.766824",
    "street_with_type": "ул Победы",
    "region_with_type": "Костромская обл"
  },
  {
    "id": 462192,
    "city": "Воскресенск",
    "city_district_with_type": "",
    "federal_district": "Центральный",
    "geo_lat": "55.428097",
    "geo_lon": "38.497005",
    "street_with_type": "ул Фабричная",
    "region_with_type": "Московская обл"
  },
  {
    "id": 462320,
    "city": "Петергоф",
    "city_district_with_type": "Петродворцовый р-н",
    "federal_district": "Северо-Западный",
    "geo_lat": "59.873212",
    "geo_lon": "29.946382",
    "street_with_type": "ул Алексеевская",
    "region_with_type": "г Санкт-Петербург"
  },
  {
    "id": 462528,
    "city": "Пушкино",
    "city_district_with_type": "",
    "federal_district": "Центральный",
    "geo_lat": "56.098472",
    "geo_lon": "37.881614",
    "street_with_type": "",
    "region_with_type": "Московская обл"
  },
  {
    "id": 462413,
    "city": "Злынка",
    "city_district_with_type": "",
    "federal_district": "Центральный",
    "geo_lat": "52.426212",
    "geo_lon": "31.737732",
    "street_with_type": "ул Площадь Свободы",
    "region_with_type": "Брянская обл"
  },
  {
    "id": 462444,
    "city": "Златоуст",
    "city_district_with_type": "",
    "federal_district": "Уральский",
    "geo_lat": "55.17154",
    "geo_lon": "59.649779",
    "street_with_type": "ул Кедровская 1-я",
    "region_with_type": "Челябинская обл"
  },
  {
    "id": 462642,
    "city": "Серпухов",
    "city_district_with_type": "",
    "federal_district": "Центральный",
    "geo_lat": "54.851132",
    "geo_lon": "37.698403",
    "street_with_type": "",
    "region_with_type": "Московская обл"
  },
  {
    "id": 462755,
    "city": "Жуковский",
    "city_district_with_type": "",
    "federal_district": "Центральный",
    "geo_lat": "55.595638",
    "geo_lon": "38.12044",
    "street_with_type": "ул Маяковского",
    "region_with_type": "Московская обл"
  },
  {
    "id": 462792,
    "city": "Жуков",
    "city_district_with_type": "",
    "federal_district": "Центральный",
    "geo_lat": "55.0323451",
    "geo_lon": "36.7443308",
    "street_with_type": "ул М.Горького",
    "region_with_type": "Калужская обл"
  },
  {
    "id": 462822,
    "city": "Жуковка",
    "city_district_with_type": "",
    "federal_district": "Центральный",
    "geo_lat": "53.5340803",
    "geo_lon": "33.7282765",
    "street_with_type": "ул Калинина",
    "region_with_type": "Брянская обл"
  },
  {
    "id": 462976,
    "city": "Раменское",
    "city_district_with_type": "",
    "federal_district": "Центральный",
    "geo_lat": "55.370353",
    "geo_lon": "38.041095",
    "street_with_type": "",
    "region_with_type": "Московская обл"
  },
  {
    "id": 462878,
    "city": "Москва",
    "city_district_with_type": "Троицкий округ",
    "federal_district": "Центральный",
    "geo_lat": "55.2709539",
    "geo_lon": "37.3781541",
    "street_with_type": "",
    "region_with_type": "г Москва"
  },
  {
    "id": 462914,
    "city": "Жиздра",
    "city_district_with_type": "",
    "federal_district": "Центральный",
    "geo_lat": "53.746021",
    "geo_lon": "34.740727",
    "street_with_type": "ул Кустарева",
    "region_with_type": "Калужская обл"
  },
  {
    "id": 462970,
    "city": "Раменское",
    "city_district_with_type": "",
    "federal_district": "Центральный",
    "geo_lat": "55.602082",
    "geo_lon": "38.540666",
    "street_with_type": "ул 3-я Садовая",
    "region_with_type": "Московская обл"
  },
  {
    "id": 462984,
    "city": "Жирновск",
    "city_district_with_type": "",
    "federal_district": "Южный",
    "geo_lat": "50.984344",
    "geo_lon": "44.773884",
    "street_with_type": "ул Коммунистическая",
    "region_with_type": "Волгоградская обл"
  },
  {
    "id": 463001,
    "city": "Донецк",
    "city_district_with_type": "",
    "federal_district": "Южный",
    "geo_lat": "48.3328448",
    "geo_lon": "39.9504393",
    "street_with_type": "кв-л Ляховича",
    "region_with_type": "Ростовская обл"
  },
  {
    "id": 463035,
    "city": "Химки",
    "city_district_with_type": "",
    "federal_district": "Центральный",
    "geo_lat": "56.067278",
    "geo_lon": "37.250871",
    "street_with_type": "",
    "region_with_type": "Московская обл"
  },
  {
    "id": 461715,
    "city": "Орехово-Зуево",
    "city_district_with_type": "",
    "federal_district": "Центральный",
    "geo_lat": "55.748782",
    "geo_lon": "38.876813",
    "street_with_type": "",
    "region_with_type": "Московская обл"
  },
  {
    "id": 463037,
    "city": "Ногинск",
    "city_district_with_type": "",
    "federal_district": "Центральный",
    "geo_lat": "55.90959",
    "geo_lon": "38.50553",
    "street_with_type": "",
    "region_with_type": "Московская обл"
  },
  {
    "id": 463038,
    "city": "Люберцы",
    "city_district_with_type": "",
    "federal_district": "Центральный",
    "geo_lat": "55.634598",
    "geo_lon": "37.940957",
    "street_with_type": "",
    "region_with_type": "Московская обл"
  },
  {
    "id": 463043,
    "city": "Орёл",
    "city_district_with_type": "Советский р-н",
    "federal_district": "Центральный",
    "geo_lat": "52.98327",
    "geo_lon": "36.083546",
    "street_with_type": "ул Пожарная",
    "region_with_type": "Орловская обл"
  },
  {
    "id": 463050,
    "city": "Ступино",
    "city_district_with_type": "",
    "federal_district": "Центральный",
    "geo_lat": "55.013823",
    "geo_lon": "38.010684",
    "street_with_type": "ул Чистопрудная",
    "region_with_type": "Московская обл"
  },
  {
    "id": 463051,
    "city": "Ступино",
    "city_district_with_type": "",
    "federal_district": "Центральный",
    "geo_lat": "54.982628",
    "geo_lon": "38.021618",
    "street_with_type": "ул Центральная",
    "region_with_type": "Московская обл"
  },
  {
    "id": 463446,
    "city": "Богородицк",
    "city_district_with_type": "",
    "federal_district": "Центральный",
    "geo_lat": "53.753242",
    "geo_lon": "38.17955",
    "street_with_type": "ул Гагарина",
    "region_with_type": "Тульская обл"
  },
  {
    "id": 463134,
    "city": "Дмитров",
    "city_district_with_type": "",
    "federal_district": "Центральный",
    "geo_lat": "56.404458",
    "geo_lon": "37.64816",
    "street_with_type": "",
    "region_with_type": "Московская обл"
  },
  {
    "id": 463145,
    "city": "Санкт-Петербург",
    "city_district_with_type": "Красногвардейский р-н",
    "federal_district": "Северо-Западный",
    "geo_lat": "59.950438",
    "geo_lon": "30.466695",
    "street_with_type": "пр-кт Ударников",
    "region_with_type": "г Санкт-Петербург"
  },
  {
    "id": 463217,
    "city": "Жердевка",
    "city_district_with_type": "",
    "federal_district": "Центральный",
    "geo_lat": "51.848475",
    "geo_lon": "41.460924",
    "street_with_type": "ул Семашко",
    "region_with_type": "Тамбовская обл"
  },
  {
    "id": 463082,
    "city": "Жигулевск",
    "city_district_with_type": "",
    "federal_district": "Приволжский",
    "geo_lat": "53.399411",
    "geo_lon": "49.495106",
    "street_with_type": "ул Первомайская",
    "region_with_type": "Самарская обл"
  },
  {
    "id": 463252,
    "city": "Красногорск",
    "city_district_with_type": "",
    "federal_district": "Центральный",
    "geo_lat": "55.867566",
    "geo_lon": "37.185177",
    "street_with_type": "",
    "region_with_type": "Московская обл"
  },
  {
    "id": 463340,
    "city": "Железноводск",
    "city_district_with_type": "",
    "federal_district": "Северо-Кавказский",
    "geo_lat": "44.132038",
    "geo_lon": "43.030551",
    "street_with_type": "",
    "region_with_type": "Ставропольский край"
  },
  {
    "id": 463343,
    "city": "Железногорск",
    "city_district_with_type": "",
    "federal_district": "Центральный",
    "geo_lat": "52.330822",
    "geo_lon": "35.371057",
    "street_with_type": "ул Рокоссовского",
    "region_with_type": "Курская обл"
  },
  {
    "id": 463355,
    "city": "Балашиха",
    "city_district_with_type": "",
    "federal_district": "Центральный",
    "geo_lat": "55.75018",
    "geo_lon": "38.004144",
    "street_with_type": "ул Октябрьская",
    "region_with_type": "Московская обл"
  },
  {
    "id": 463637,
    "city": "Зерноград",
    "city_district_with_type": "",
    "federal_district": "Южный",
    "geo_lat": "46.845718",
    "geo_lon": "40.307838",
    "street_with_type": "ул им Ленина",
    "region_with_type": "Ростовская обл"
  },
  {
    "id": 463465,
    "city": "Одинцово",
    "city_district_with_type": "",
    "federal_district": "Центральный",
    "geo_lat": "55.650078",
    "geo_lon": "37.10441",
    "street_with_type": "ул Садовая",
    "region_with_type": "Московская обл"
  },
  {
    "id": 463516,
    "city": "Жарковский",
    "city_district_with_type": "",
    "federal_district": "Центральный",
    "geo_lat": "55.848867",
    "geo_lon": "32.269506",
    "street_with_type": "Советский пер",
    "region_with_type": "Тверская обл"
  },
  {
    "id": 463533,
    "city": "Мантурово",
    "city_district_with_type": "",
    "federal_district": "Центральный",
    "geo_lat": "58.3265086",
    "geo_lon": "44.7574637",
    "street_with_type": "",
    "region_with_type": "Костромская обл"
  },
  {
    "id": 463622,
    "city": "Ступино",
    "city_district_with_type": "",
    "federal_district": "Центральный",
    "geo_lat": "55.169699",
    "geo_lon": "38.427323",
    "street_with_type": "",
    "region_with_type": "Московская обл"
  },
  {
    "id": 463666,
    "city": "Истра",
    "city_district_with_type": "",
    "federal_district": "Центральный",
    "geo_lat": "55.94265",
    "geo_lon": "36.77453",
    "street_with_type": "",
    "region_with_type": "Московская обл"
  },
  {
    "id": 463685,
    "city": "Орехово-Зуево",
    "city_district_with_type": "",
    "federal_district": "Центральный",
    "geo_lat": "55.426661",
    "geo_lon": "38.950376",
    "street_with_type": "",
    "region_with_type": "Московская обл"
  },
  {
    "id": 463739,
    "city": "Пушкино",
    "city_district_with_type": "",
    "federal_district": "Центральный",
    "geo_lat": "56.010428",
    "geo_lon": "37.847155",
    "street_with_type": "",
    "region_with_type": "Московская обл"
  },
  {
    "id": 463828,
    "city": "Зеленоградск",
    "city_district_with_type": "",
    "federal_district": "Северо-Западный",
    "geo_lat": "54.958565",
    "geo_lon": "20.476774",
    "street_with_type": "ул Тургенева",
    "region_with_type": "Калининградская обл"
  },
  {
    "id": 463801,
    "city": "Раменское",
    "city_district_with_type": "",
    "federal_district": "Центральный",
    "geo_lat": "55.52706",
    "geo_lon": "37.998047",
    "street_with_type": "",
    "region_with_type": "Московская обл"
  },
  {
    "id": 463824,
    "city": "Зеленокумск",
    "city_district_with_type": "",
    "federal_district": "Северо-Кавказский",
    "geo_lat": "44.4073879",
    "geo_lon": "43.88041",
    "street_with_type": "пл Ленина",
    "region_with_type": "Ставропольский край"
  },
  {
    "id": 463826,
    "city": "Пушкино",
    "city_district_with_type": "",
    "federal_district": "Центральный",
    "geo_lat": "56.100103",
    "geo_lon": "37.916613",
    "street_with_type": "ул Центральная",
    "region_with_type": "Московская обл"
  },
  {
    "id": 463829,
    "city": "Зеленоград",
    "city_district_with_type": "",
    "federal_district": "Центральный",
    "geo_lat": "55.982147",
    "geo_lon": "37.181206",
    "street_with_type": "",
    "region_with_type": "г Москва"
  },
  {
    "id": 463830,
    "city": "Зеленогорск",
    "city_district_with_type": "Курортный р-н",
    "federal_district": "Северо-Западный",
    "geo_lat": "60.199634",
    "geo_lon": "29.702148",
    "street_with_type": "пр-кт Красных Командиров",
    "region_with_type": "г Санкт-Петербург"
  },
  {
    "id": 463835,
    "city": "Зеленодольск",
    "city_district_with_type": "",
    "federal_district": "Приволжский",
    "geo_lat": "55.843754",
    "geo_lon": "48.51772",
    "street_with_type": "ул Фрунзе",
    "region_with_type": "Респ Татарстан"
  },
  {
    "id": 463854,
    "city": "Солнечногорск",
    "city_district_with_type": "",
    "federal_district": "Центральный",
    "geo_lat": "56.270146",
    "geo_lon": "37.141923",
    "street_with_type": "",
    "region_with_type": "Московская обл"
  },
  {
    "id": 463951,
    "city": "Щёлково",
    "city_district_with_type": "",
    "federal_district": "Центральный",
    "geo_lat": "56.00236",
    "geo_lon": "38.159966",
    "street_with_type": "",
    "region_with_type": "Московская обл"
  },
  {
    "id": 464018,
    "city": "Клинцы",
    "city_district_with_type": "",
    "federal_district": "Центральный",
    "geo_lat": "52.726886",
    "geo_lon": "32.233942",
    "street_with_type": "ул Мелиораторов",
    "region_with_type": "Брянская обл"
  },
  {
    "id": 464090,
    "city": "Раменское",
    "city_district_with_type": "",
    "federal_district": "Центральный",
    "geo_lat": "55.341485",
    "geo_lon": "38.223558",
    "street_with_type": "",
    "region_with_type": "Московская обл"
  },
  {
    "id": 464101,
    "city": "Заволжье",
    "city_district_with_type": "",
    "federal_district": "Приволжский",
    "geo_lat": "56.64287",
    "geo_lon": "43.393883",
    "street_with_type": "Советский пер",
    "region_with_type": "Нижегородская обл"
  },
  {
    "id": 464112,
    "city": "Заволжск",
    "city_district_with_type": "",
    "federal_district": "Центральный",
    "geo_lat": "57.491737",
    "geo_lon": "42.137491",
    "street_with_type": "",
    "region_with_type": "Ивановская обл"
  },
  {
    "id": 464176,
    "city": "Пушкино",
    "city_district_with_type": "",
    "federal_district": "Центральный",
    "geo_lat": "56.049943",
    "geo_lon": "37.84958",
    "street_with_type": "ул Добролюбова",
    "region_with_type": "Московская обл"
  },
  {
    "id": 464621,
    "city": "Скопин",
    "city_district_with_type": "",
    "federal_district": "Центральный",
    "geo_lat": "53.730853",
    "geo_lon": "39.594315",
    "street_with_type": "ул Трудовая",
    "region_with_type": "Рязанская обл"
  },
  {
    "id": 464625,
    "city": "Заречный",
    "city_district_with_type": "",
    "federal_district": "Приволжский",
    "geo_lat": "53.203636",
    "geo_lon": "45.192085",
    "street_with_type": "ул Адмирала Макарова",
    "region_with_type": "Пензенская обл"
  },
  {
    "id": 464676,
    "city": "Новомосковск",
    "city_district_with_type": "",
    "federal_district": "Центральный",
    "geo_lat": "54.08404",
    "geo_lon": "38.217415",
    "street_with_type": "ул Связи",
    "region_with_type": "Тульская обл"
  },
  {
    "id": 464687,
    "city": "Зарайск",
    "city_district_with_type": "",
    "federal_district": "Центральный",
    "geo_lat": "54.7654",
    "geo_lon": "38.8837",
    "street_with_type": "ул Фабричная",
    "region_with_type": "Московская обл"
  },
  {
    "id": 464700,
    "city": "Орехово-Зуево",
    "city_district_with_type": "",
    "federal_district": "Центральный",
    "geo_lat": "55.582659",
    "geo_lon": "39.299932",
    "street_with_type": "",
    "region_with_type": "Московская обл"
  },
  {
    "id": 464708,
    "city": "Талдом",
    "city_district_with_type": "",
    "federal_district": "Центральный",
    "geo_lat": "56.566864",
    "geo_lon": "37.433705",
    "street_with_type": "пер Мира",
    "region_with_type": "Московская обл"
  },
  {
    "id": 464717,
    "city": "Орехово-Зуево",
    "city_district_with_type": "",
    "federal_district": "Центральный",
    "geo_lat": "55.642464",
    "geo_lon": "38.925744",
    "street_with_type": "",
    "region_with_type": "Московская обл"
  },
  {
    "id": 464737,
    "city": "Орехово-Зуево",
    "city_district_with_type": "",
    "federal_district": "Центральный",
    "geo_lat": "55.638226",
    "geo_lon": "38.865826",
    "street_with_type": "",
    "region_with_type": "Московская обл"
  },
  {
    "id": 465646,
    "city": "Губкин",
    "city_district_with_type": "",
    "federal_district": "Центральный",
    "geo_lat": "51.283644",
    "geo_lon": "37.534748",
    "street_with_type": "",
    "region_with_type": "Белгородская обл"
  },
  {
    "id": 464891,
    "city": "Западная Двина",
    "city_district_with_type": "",
    "federal_district": "Центральный",
    "geo_lat": "56.259278",
    "geo_lon": "32.074473",
    "street_with_type": "ул Октябрьская",
    "region_with_type": "Тверская обл"
  },
  {
    "id": 465027,
    "city": "Солнечногорск",
    "city_district_with_type": "",
    "federal_district": "Центральный",
    "geo_lat": "56.1987368",
    "geo_lon": "36.816013",
    "street_with_type": "",
    "region_with_type": "Московская обл"
  },
  {
    "id": 465051,
    "city": "Темрюк",
    "city_district_with_type": "",
    "federal_district": "Южный",
    "geo_lat": "45.261074",
    "geo_lon": "37.445455",
    "street_with_type": "",
    "region_with_type": "Краснодарский край"
  },
  {
    "id": 465057,
    "city": "Москва",
    "city_district_with_type": "р-н Замоскворечье",
    "federal_district": "Центральный",
    "geo_lat": "55.733204",
    "geo_lon": "37.633365",
    "street_with_type": "ул Новокузнецкая",
    "region_with_type": "г Москва"
  },
  {
    "id": 465273,
    "city": "Казань",
    "city_district_with_type": "",
    "federal_district": "Приволжский",
    "geo_lat": "55.794438",
    "geo_lon": "49.111451",
    "street_with_type": "",
    "region_with_type": "Респ Татарстан"
  },
  {
    "id": 465274,
    "city": "Щекино",
    "city_district_with_type": "",
    "federal_district": "Центральный",
    "geo_lat": "54.00015",
    "geo_lon": "37.51696",
    "street_with_type": "ул Ленина",
    "region_with_type": "Тульская обл"
  },
  {
    "id": 465279,
    "city": "Галич",
    "city_district_with_type": "",
    "federal_district": "Центральный",
    "geo_lat": "58.366776",
    "geo_lon": "42.349747",
    "street_with_type": "ул Касаткиной",
    "region_with_type": "Костромская обл"
  },
  {
    "id": 465286,
    "city": "Бор",
    "city_district_with_type": "",
    "federal_district": "Приволжский",
    "geo_lat": "56.366864",
    "geo_lon": "44.049878",
    "street_with_type": "ул Гастелло",
    "region_with_type": "Нижегородская обл"
  },
  {
    "id": 465433,
    "city": "Истра",
    "city_district_with_type": "",
    "federal_district": "Центральный",
    "geo_lat": "55.801349",
    "geo_lon": "37.025241",
    "street_with_type": "",
    "region_with_type": "Московская обл"
  },
  {
    "id": 465436,
    "city": "Раменское",
    "city_district_with_type": "",
    "federal_district": "Центральный",
    "geo_lat": "55.656245",
    "geo_lon": "38.308359",
    "street_with_type": "ул Центральная",
    "region_with_type": "Московская обл"
  },
  {
    "id": 465437,
    "city": "Одинцово",
    "city_district_with_type": "",
    "federal_district": "Центральный",
    "geo_lat": "55.649395",
    "geo_lon": "36.962525",
    "street_with_type": "",
    "region_with_type": "Московская обл"
  },
  {
    "id": 465476,
    "city": "Москва",
    "city_district_with_type": "р-н Северное Тушино",
    "federal_district": "Центральный",
    "geo_lat": "55.8498093",
    "geo_lon": "37.4501538",
    "street_with_type": "Химкинский б-р",
    "region_with_type": "г Москва"
  },
  {
    "id": 465477,
    "city": "Красногорск",
    "city_district_with_type": "",
    "federal_district": "Центральный",
    "geo_lat": "55.777013",
    "geo_lon": "37.318613",
    "street_with_type": "",
    "region_with_type": "Московская обл"
  },
  {
    "id": 465543,
    "city": "Заинск",
    "city_district_with_type": "",
    "federal_district": "Приволжский",
    "geo_lat": "55.318897",
    "geo_lon": "52.069244",
    "street_with_type": "ул Советская",
    "region_with_type": "Респ Татарстан"
  },
  {
    "id": 465632,
    "city": "Щёлково",
    "city_district_with_type": "",
    "federal_district": "Центральный",
    "geo_lat": "55.932627",
    "geo_lon": "37.957982",
    "street_with_type": "Соколовский тупик",
    "region_with_type": "Московская обл"
  },
  {
    "id": 465726,
    "city": "Задонск",
    "city_district_with_type": "",
    "federal_district": "Центральный",
    "geo_lat": "52.389862",
    "geo_lon": "38.925816",
    "street_with_type": "ул Бебеля",
    "region_with_type": "Липецкая обл"
  },
  {
    "id": 465824,
    "city": "Домодедово",
    "city_district_with_type": "",
    "federal_district": "Центральный",
    "geo_lat": "55.389426",
    "geo_lon": "37.7965583",
    "street_with_type": "ул Радонежская",
    "region_with_type": "Московская обл"
  },
  {
    "id": 465795,
    "city": "Бугульма",
    "city_district_with_type": "",
    "federal_district": "Приволжский",
    "geo_lat": "54.516709",
    "geo_lon": "52.799756",
    "street_with_type": "ул Семафорная",
    "region_with_type": "Респ Татарстан"
  },
  {
    "id": 465783,
    "city": "Чехов",
    "city_district_with_type": "",
    "federal_district": "Центральный",
    "geo_lat": "55.13461",
    "geo_lon": "37.451896",
    "street_with_type": "ул Советская",
    "region_with_type": "Московская обл"
  },
  {
    "id": 465825,
    "city": "Домодедово",
    "city_district_with_type": "",
    "federal_district": "Центральный",
    "geo_lat": "55.3842322",
    "geo_lon": "37.7852021",
    "street_with_type": "ул Заборье",
    "region_with_type": "Московская обл"
  },
  {
    "id": 465923,
    "city": "Егорьевск",
    "city_district_with_type": "",
    "federal_district": "Центральный",
    "geo_lat": "55.383055",
    "geo_lon": "39.035842",
    "street_with_type": "",
    "region_with_type": "Московская обл"
  },
  {
    "id": 466013,
    "city": "Кизел",
    "city_district_with_type": "",
    "federal_district": "Приволжский",
    "geo_lat": "59.034802",
    "geo_lon": "57.640885",
    "street_with_type": "",
    "region_with_type": "Пермский край"
  },
  {
    "id": 466060,
    "city": "Южно-Сухокумск",
    "city_district_with_type": "",
    "federal_district": "Северо-Кавказский",
    "geo_lat": "44.660166",
    "geo_lon": "45.649966",
    "street_with_type": "",
    "region_with_type": "Респ Дагестан"
  },
  {
    "id": 466084,
    "city": "Южа",
    "city_district_with_type": "",
    "federal_district": "Центральный",
    "geo_lat": "56.583009",
    "geo_lon": "42.012185",
    "street_with_type": "Глушицкий проезд",
    "region_with_type": "Ивановская обл"
  },
  {
    "id": 466200,
    "city": "Юрюзань",
    "city_district_with_type": "",
    "federal_district": "Уральский",
    "geo_lat": "54.854646",
    "geo_lon": "58.422662",
    "street_with_type": "",
    "region_with_type": "Челябинская обл"
  },
  {
    "id": 466215,
    "city": "Юрьев-Польский",
    "city_district_with_type": "",
    "federal_district": "Центральный",
    "geo_lat": "56.500023",
    "geo_lon": "39.68307",
    "street_with_type": "Советская пл",
    "region_with_type": "Владимирская обл"
  },
  {
    "id": 466230,
    "city": "Истра",
    "city_district_with_type": "",
    "federal_district": "Центральный",
    "geo_lat": "55.786354",
    "geo_lon": "37.049648",
    "street_with_type": "",
    "region_with_type": "Московская обл"
  },
  {
    "id": 466232,
    "city": "Егорьевск",
    "city_district_with_type": "",
    "federal_district": "Центральный",
    "geo_lat": "55.299045",
    "geo_lon": "39.172781",
    "street_with_type": "",
    "region_with_type": "Московская обл"
  },
  {
    "id": 466341,
    "city": "Москва",
    "city_district_with_type": "",
    "federal_district": "Центральный",
    "geo_lat": "55.75396",
    "geo_lon": "37.620393",
    "street_with_type": "",
    "region_with_type": "г Москва"
  },
  {
    "id": 466258,
    "city": "Юрьевец",
    "city_district_with_type": "",
    "federal_district": "Центральный",
    "geo_lat": "57.319949",
    "geo_lon": "43.104069",
    "street_with_type": "ул Тургенева",
    "region_with_type": "Ивановская обл"
  },
  {
    "id": 466448,
    "city": "Воскресенск",
    "city_district_with_type": "",
    "federal_district": "Центральный",
    "geo_lat": "55.446478",
    "geo_lon": "38.452556",
    "street_with_type": "ул Полевая",
    "region_with_type": "Московская обл"
  },
  {
    "id": 466658,
    "city": "Юхнов",
    "city_district_with_type": "",
    "federal_district": "Центральный",
    "geo_lat": "54.74448",
    "geo_lon": "35.229473",
    "street_with_type": "ул Бебеля",
    "region_with_type": "Калужская обл"
  },
  {
    "id": 466748,
    "city": "Одинцово",
    "city_district_with_type": "",
    "federal_district": "Центральный",
    "geo_lat": "55.659881",
    "geo_lon": "37.188842",
    "street_with_type": "",
    "region_with_type": "Московская обл"
  },
  {
    "id": 467023,
    "city": "Солнечногорск",
    "city_district_with_type": "",
    "federal_district": "Центральный",
    "geo_lat": "56.103914",
    "geo_lon": "37.098184",
    "street_with_type": "",
    "region_with_type": "Московская обл"
  },
  {
    "id": 466806,
    "city": "Йошкар-Ола",
    "city_district_with_type": "",
    "federal_district": "Приволжский",
    "geo_lat": "56.63896",
    "geo_lon": "47.890877",
    "street_with_type": "ул Кремлёвская",
    "region_with_type": "Респ Марий Эл"
  },
  {
    "id": 466885,
    "city": "Ейск",
    "city_district_with_type": "",
    "federal_district": "Южный",
    "geo_lat": "46.698837",
    "geo_lon": "38.279155",
    "street_with_type": "ул Гоголя",
    "region_with_type": "Краснодарский край"
  },
  {
    "id": 466990,
    "city": "Ессентуки",
    "city_district_with_type": "",
    "federal_district": "Северо-Кавказский",
    "geo_lat": "44.044059",
    "geo_lon": "42.860895",
    "street_with_type": "ул Красноармейская",
    "region_with_type": "Ставропольский край"
  },
  {
    "id": 467104,
    "city": "Одинцово",
    "city_district_with_type": "",
    "federal_district": "Центральный",
    "geo_lat": "55.77116",
    "geo_lon": "36.858604",
    "street_with_type": "",
    "region_with_type": "Московская обл"
  },
  {
    "id": 467120,
    "city": "Ершов",
    "city_district_with_type": "",
    "federal_district": "Приволжский",
    "geo_lat": "51.351511",
    "geo_lon": "48.276802",
    "street_with_type": "ул 40 лет ВЛКСМ",
    "region_with_type": "Саратовская обл"
  },
  {
    "id": 467565,
    "city": "Орехово-Зуево",
    "city_district_with_type": "",
    "federal_district": "Центральный",
    "geo_lat": "55.751817",
    "geo_lon": "38.919474",
    "street_with_type": "",
    "region_with_type": "Московская обл"
  },
  {
    "id": 467629,
    "city": "Сыктывкар",
    "city_district_with_type": "",
    "federal_district": "Северо-Западный",
    "geo_lat": "61.66618",
    "geo_lon": "50.800224",
    "street_with_type": "ул Катаева",
    "region_with_type": "Респ Коми"
  },
  {
    "id": 467238,
    "city": "Ермолино",
    "city_district_with_type": "",
    "federal_district": "Центральный",
    "geo_lat": "55.1952",
    "geo_lon": "36.595657",
    "street_with_type": "ул Мичурина",
    "region_with_type": "Калужская обл"
  },
  {
    "id": 467854,
    "city": "Краснодар",
    "city_district_with_type": "Прикубанский округ",
    "federal_district": "Южный",
    "geo_lat": "45.044202",
    "geo_lon": "38.795839",
    "street_with_type": "ул Маслобойная",
    "region_with_type": "Краснодарский край"
  },
  {
    "id": 467376,
    "city": "Мытищи",
    "city_district_with_type": "",
    "federal_district": "Центральный",
    "geo_lat": "56.009309",
    "geo_lon": "37.541693",
    "street_with_type": "",
    "region_with_type": "Московская обл"
  },
  {
    "id": 467787,
    "city": "Лесной",
    "city_district_with_type": "",
    "federal_district": "Уральский",
    "geo_lat": "58.694651",
    "geo_lon": "59.829577",
    "street_with_type": "ул Верхняя",
    "region_with_type": "Свердловская обл"
  },
  {
    "id": 467406,
    "city": "Истра",
    "city_district_with_type": "",
    "federal_district": "Центральный",
    "geo_lat": "55.940986",
    "geo_lon": "37.025807",
    "street_with_type": "",
    "region_with_type": "Московская обл"
  },
  {
    "id": 467753,
    "city": "Ельня",
    "city_district_with_type": "",
    "federal_district": "Центральный",
    "geo_lat": "54.57839",
    "geo_lon": "33.183174",
    "street_with_type": "ул Энгельса",
    "region_with_type": "Смоленская обл"
  },
  {
    "id": 467375,
    "city": "Щёлково",
    "city_district_with_type": "",
    "federal_district": "Центральный",
    "geo_lat": "56.114149",
    "geo_lon": "38.505054",
    "street_with_type": "",
    "region_with_type": "Московская обл"
  },
  {
    "id": 468390,
    "city": "Ефремов",
    "city_district_with_type": "",
    "federal_district": "Центральный",
    "geo_lat": "53.137603",
    "geo_lon": "38.117673",
    "street_with_type": "",
    "region_with_type": "Тульская обл"
  },
  {
    "id": 468082,
    "city": "Елабуга",
    "city_district_with_type": "",
    "federal_district": "Приволжский",
    "geo_lat": "55.761234",
    "geo_lon": "52.064648",
    "street_with_type": "ул Стахеевых",
    "region_with_type": "Респ Татарстан"
  },
  {
    "id": 467315,
    "city": "Октябрьский",
    "city_district_with_type": "",
    "federal_district": "Центральный",
    "geo_lat": "54.233159",
    "geo_lon": "38.899971",
    "street_with_type": "ул Краснопролетарская",
    "region_with_type": "Рязанская обл"
  },
  {
    "id": 467934,
    "city": "Клин",
    "city_district_with_type": "",
    "federal_district": "Центральный",
    "geo_lat": "56.250587",
    "geo_lon": "36.762089",
    "street_with_type": "",
    "region_with_type": "Московская обл"
  },
  {
    "id": 467978,
    "city": "Елец",
    "city_district_with_type": "",
    "federal_district": "Центральный",
    "geo_lat": "52.623911",
    "geo_lon": "38.501335",
    "street_with_type": "ул Мира",
    "region_with_type": "Липецкая обл"
  },
  {
    "id": 468011,
    "city": "Пушкино",
    "city_district_with_type": "",
    "federal_district": "Центральный",
    "geo_lat": "56.115554",
    "geo_lon": "37.813495",
    "street_with_type": "",
    "region_with_type": "Московская обл"
  },
  {
    "id": 468345,
    "city": "Раменское",
    "city_district_with_type": "",
    "federal_district": "Центральный",
    "geo_lat": "55.535126",
    "geo_lon": "38.028165",
    "street_with_type": "",
    "region_with_type": "Московская обл"
  },
  {
    "id": 468364,
    "city": "Егорьевск",
    "city_district_with_type": "",
    "federal_district": "Центральный",
    "geo_lat": "55.423565",
    "geo_lon": "38.977352",
    "street_with_type": "",
    "region_with_type": "Московская обл"
  },
  {
    "id": 468127,
    "city": "Москва",
    "city_district_with_type": "Крылатское р-н",
    "federal_district": "Центральный",
    "geo_lat": "55.766613",
    "geo_lon": "37.38384",
    "street_with_type": "Рублёвское шоссе",
    "region_with_type": "г Москва"
  },
  {
    "id": 468250,
    "city": "Егорьевск",
    "city_district_with_type": "",
    "federal_district": "Центральный",
    "geo_lat": "55.378299",
    "geo_lon": "39.041195",
    "street_with_type": "ул Александра Невского",
    "region_with_type": "Московская обл"
  },
  {
    "id": 468424,
    "city": "Чехов",
    "city_district_with_type": "",
    "federal_district": "Центральный",
    "geo_lat": "55.232258",
    "geo_lon": "37.228485",
    "street_with_type": "",
    "region_with_type": "Московская обл"
  },
  {
    "id": 468560,
    "city": "Александровск",
    "city_district_with_type": "",
    "federal_district": "Приволжский",
    "geo_lat": "59.330091",
    "geo_lon": "57.264482",
    "street_with_type": "ул 6-ой Пятилетки",
    "region_with_type": "Пермский край"
  },
  {
    "id": 468671,
    "city": "Ясногорск",
    "city_district_with_type": "",
    "federal_district": "Центральный",
    "geo_lat": "54.480005",
    "geo_lon": "37.698133",
    "street_with_type": "ул П.Смидовича",
    "region_with_type": "Тульская обл"
  },
  {
    "id": 468902,
    "city": "Ярославль",
    "city_district_with_type": "",
    "federal_district": "Центральный",
    "geo_lat": "57.629845",
    "geo_lon": "39.872936",
    "street_with_type": "ул Свердлова",
    "region_with_type": "Ярославская обл"
  },
  {
    "id": 468866,
    "city": "Ярцево",
    "city_district_with_type": "",
    "federal_district": "Центральный",
    "geo_lat": "55.066227",
    "geo_lon": "32.696144",
    "street_with_type": "ул Чернышевского",
    "region_with_type": "Смоленская обл"
  },
  {
    "id": 468927,
    "city": "Волоколамск",
    "city_district_with_type": "",
    "federal_district": "Центральный",
    "geo_lat": "56.133015",
    "geo_lon": "35.832863",
    "street_with_type": "Школьный пер",
    "region_with_type": "Московская обл"
  },
  {
    "id": 468991,
    "city": "Ухта",
    "city_district_with_type": "",
    "federal_district": "Северо-Западный",
    "geo_lat": "63.4354146",
    "geo_lon": "53.5763223",
    "street_with_type": "ул Белгородская",
    "region_with_type": "Респ Коми"
  },
  {
    "id": 469341,
    "city": "Домодедово",
    "city_district_with_type": "",
    "federal_district": "Центральный",
    "geo_lat": "55.48479",
    "geo_lon": "37.749247",
    "street_with_type": "ул Центральная",
    "region_with_type": "Московская обл"
  },
  {
    "id": 469005,
    "city": "Яранск",
    "city_district_with_type": "",
    "federal_district": "Приволжский",
    "geo_lat": "57.303217",
    "geo_lon": "47.886134",
    "street_with_type": "ул Тургенева",
    "region_with_type": "Кировская обл"
  },
  {
    "id": 469275,
    "city": "Ногинск",
    "city_district_with_type": "",
    "federal_district": "Центральный",
    "geo_lat": "55.92839",
    "geo_lon": "38.40297",
    "street_with_type": "ул Кооперативная",
    "region_with_type": "Московская обл"
  },
  {
    "id": 469178,
    "city": "Янаул",
    "city_district_with_type": "",
    "federal_district": "Приволжский",
    "geo_lat": "56.271896",
    "geo_lon": "54.930927",
    "street_with_type": "ул Станционная",
    "region_with_type": "Респ Башкортостан"
  },
  {
    "id": 469533,
    "city": "Домодедово",
    "city_district_with_type": "",
    "federal_district": "Центральный",
    "geo_lat": "55.442592",
    "geo_lon": "37.950461",
    "street_with_type": "",
    "region_with_type": "Московская обл"
  },
  {
    "id": 469646,
    "city": "Муром",
    "city_district_with_type": "",
    "federal_district": "Центральный",
    "geo_lat": "55.5631278",
    "geo_lon": "42.0230624",
    "street_with_type": "",
    "region_with_type": "Владимирская обл"
  },
  {
    "id": 469542,
    "city": "Орехово-Зуево",
    "city_district_with_type": "",
    "federal_district": "Центральный",
    "geo_lat": "55.574101",
    "geo_lon": "38.784852",
    "street_with_type": "",
    "region_with_type": "Московская обл"
  },
  {
    "id": 469655,
    "city": "Яхрома",
    "city_district_with_type": "",
    "federal_district": "Центральный",
    "geo_lat": "56.289071",
    "geo_lon": "37.483175",
    "street_with_type": "",
    "region_with_type": "Московская обл"
  },
  {
    "id": 469753,
    "city": "Казань",
    "city_district_with_type": "",
    "federal_district": "Приволжский",
    "geo_lat": "55.794438",
    "geo_lon": "49.111451",
    "street_with_type": "",
    "region_with_type": "Респ Татарстан"
  },
  {
    "id": 469809,
    "city": "Ядрин",
    "city_district_with_type": "",
    "federal_district": "Приволжский",
    "geo_lat": "55.940506",
    "geo_lon": "46.205945",
    "street_with_type": "ул Красноармейская",
    "region_with_type": "Чувашская республика - Чувашия"
  },
  {
    "id": 469856,
    "city": "Санкт-Петербург",
    "city_district_with_type": "Невский р-н",
    "federal_district": "Северо-Западный",
    "geo_lat": "59.93192",
    "geo_lon": "30.453913",
    "street_with_type": "ул Латышских Стрелков",
    "region_with_type": "г Санкт-Петербург"
  },
  {
    "id": 469252,
    "city": "Бор",
    "city_district_with_type": "",
    "federal_district": "Приволжский",
    "geo_lat": "56.2487493",
    "geo_lon": "44.5511245",
    "street_with_type": "",
    "region_with_type": "Нижегородская обл"
  },
  {
    "id": 469900,
    "city": "Истра",
    "city_district_with_type": "",
    "federal_district": "Центральный",
    "geo_lat": "55.904776",
    "geo_lon": "36.790332",
    "street_with_type": "",
    "region_with_type": "Московская обл"
  },
  {
    "id": 469933,
    "city": "Арзамас",
    "city_district_with_type": "",
    "federal_district": "Приволжский",
    "geo_lat": "55.38162",
    "geo_lon": "43.78633",
    "street_with_type": "ул Трудовая",
    "region_with_type": "Нижегородская обл"
  },
  {
    "id": 469960,
    "city": "Вытегра",
    "city_district_with_type": "",
    "federal_district": "Северо-Западный",
    "geo_lat": "61.006418",
    "geo_lon": "36.4482893",
    "street_with_type": "пр-кт Ленина",
    "region_with_type": "Вологодская обл"
  },
  {
    "id": 469995,
    "city": "Высоцк",
    "city_district_with_type": "",
    "federal_district": "Северо-Западный",
    "geo_lat": "60.629017",
    "geo_lon": "28.571033",
    "street_with_type": "ул Ленинская",
    "region_with_type": "Ленинградская обл"
  },
  {
    "id": 470012,
    "city": "Нижний Новгород",
    "city_district_with_type": "Советский р-н",
    "federal_district": "Приволжский",
    "geo_lat": "56.310155",
    "geo_lon": "44.022658",
    "street_with_type": "ул Ванеева",
    "region_with_type": "Нижегородская обл"
  },
  {
    "id": 470042,
    "city": "Чехов",
    "city_district_with_type": "",
    "federal_district": "Центральный",
    "geo_lat": "55.108478",
    "geo_lon": "37.182635",
    "street_with_type": "",
    "region_with_type": "Московская обл"
  },
  {
    "id": 470083,
    "city": "Высоковск",
    "city_district_with_type": "",
    "federal_district": "Центральный",
    "geo_lat": "56.315895",
    "geo_lon": "36.549431",
    "street_with_type": "ул Советская",
    "region_with_type": "Московская обл"
  },
  {
    "id": 470142,
    "city": "Истра",
    "city_district_with_type": "",
    "federal_district": "Центральный",
    "geo_lat": "55.906753",
    "geo_lon": "36.930592",
    "street_with_type": "ул Центральная",
    "region_with_type": "Московская обл"
  },
  {
    "id": 470144,
    "city": "Электросталь",
    "city_district_with_type": "",
    "federal_district": "Центральный",
    "geo_lat": "55.801723",
    "geo_lon": "38.467522",
    "street_with_type": "ул Комсомольская",
    "region_with_type": "Московская обл"
  },
  {
    "id": 470252,
    "city": "Вышний Волочек",
    "city_district_with_type": "",
    "federal_district": "Центральный",
    "geo_lat": "57.59128",
    "geo_lon": "34.564711",
    "street_with_type": "ул Красных Печатников",
    "region_with_type": "Тверская обл"
  },
  {
    "id": 470299,
    "city": "Наро-Фоминск",
    "city_district_with_type": "",
    "federal_district": "Центральный",
    "geo_lat": "55.235852",
    "geo_lon": "36.178166",
    "street_with_type": "",
    "region_with_type": "Московская обл"
  },
  {
    "id": 470444,
    "city": "Выкса",
    "city_district_with_type": "",
    "federal_district": "Приволжский",
    "geo_lat": "55.317461",
    "geo_lon": "42.175184",
    "street_with_type": "Центральный мкр",
    "region_with_type": "Нижегородская обл"
  },
  {
    "id": 470451,
    "city": "Москва",
    "city_district_with_type": "р-н Выхино-Жулебино",
    "federal_district": "Центральный",
    "geo_lat": "55.7015898",
    "geo_lon": "37.8221565",
    "street_with_type": "",
    "region_with_type": "г Москва"
  },
  {
    "id": 470530,
    "city": "Котлас",
    "city_district_with_type": "",
    "federal_district": "Северо-Западный",
    "geo_lat": "61.247167",
    "geo_lon": "46.898876",
    "street_with_type": "ул Матросова",
    "region_with_type": "Архангельская обл"
  },
  {
    "id": 470499,
    "city": "Спирово",
    "city_district_with_type": "",
    "federal_district": "Центральный",
    "geo_lat": "57.364701",
    "geo_lon": "34.843916",
    "street_with_type": "ул Береговая",
    "region_with_type": "Тверская обл"
  },
  {
    "id": 470546,
    "city": "Выборг",
    "city_district_with_type": "",
    "federal_district": "Северо-Западный",
    "geo_lat": "60.707794",
    "geo_lon": "28.752558",
    "street_with_type": "пр-кт Ленина",
    "region_with_type": "Ленинградская обл"
  },
  {
    "id": 470653,
    "city": "Усть-Катав",
    "city_district_with_type": "",
    "federal_district": "Уральский",
    "geo_lat": "54.905415",
    "geo_lon": "58.354983",
    "street_with_type": "ул Калинина",
    "region_with_type": "Челябинская обл"
  },
  {
    "id": 470676,
    "city": "Вязьма",
    "city_district_with_type": "",
    "federal_district": "Центральный",
    "geo_lat": "55.210438",
    "geo_lon": "34.295433",
    "street_with_type": "ул Парижской Коммуны",
    "region_with_type": "Смоленская обл"
  },
  {
    "id": 470666,
    "city": "Вязники",
    "city_district_with_type": "",
    "federal_district": "Центральный",
    "geo_lat": "56.250397",
    "geo_lon": "42.165365",
    "street_with_type": "ул 1-я Набережная",
    "region_with_type": "Владимирская обл"
  },
  {
    "id": 470743,
    "city": "Москва",
    "city_district_with_type": "Троицкий округ",
    "federal_district": "Центральный",
    "geo_lat": "55.266558",
    "geo_lon": "37.364903",
    "street_with_type": "",
    "region_with_type": "г Москва"
  },
  {
    "id": 470734,
    "city": "Вятские Поляны",
    "city_district_with_type": "",
    "federal_district": "Приволжский",
    "geo_lat": "56.225989",
    "geo_lon": "51.065505",
    "street_with_type": "ул Школьная",
    "region_with_type": "Кировская обл"
  },
  {
    "id": 470762,
    "city": "Сортавала",
    "city_district_with_type": "",
    "federal_district": "Северо-Западный",
    "geo_lat": "62.174564",
    "geo_lon": "30.692127",
    "street_with_type": "",
    "region_with_type": "Респ Карелия"
  },
  {
    "id": 470817,
    "city": "Лотошино",
    "city_district_with_type": "",
    "federal_district": "Центральный",
    "geo_lat": "56.375259",
    "geo_lon": "35.636554",
    "street_with_type": "ул Заречная",
    "region_with_type": "Московская обл"
  },
  {
    "id": 470783,
    "city": "Домодедово",
    "city_district_with_type": "",
    "federal_district": "Центральный",
    "geo_lat": "55.47376",
    "geo_lon": "37.837408",
    "street_with_type": "",
    "region_with_type": "Московская обл"
  },
  {
    "id": 470905,
    "city": "Вуктыл",
    "city_district_with_type": "",
    "federal_district": "Северо-Западный",
    "geo_lat": "63.861436",
    "geo_lon": "57.316531",
    "street_with_type": "",
    "region_with_type": "Респ Коми"
  },
  {
    "id": 471101,
    "city": "Всеволожск",
    "city_district_with_type": "",
    "federal_district": "Северо-Западный",
    "geo_lat": "60.020737",
    "geo_lon": "30.63751",
    "street_with_type": "ул Бибиковская",
    "region_with_type": "Ленинградская обл"
  },
  {
    "id": 471271,
    "city": "Клин",
    "city_district_with_type": "",
    "federal_district": "Центральный",
    "geo_lat": "56.383109",
    "geo_lon": "36.291381",
    "street_with_type": "",
    "region_with_type": "Московская обл"
  },
  {
    "id": 471308,
    "city": "Сосногорск",
    "city_district_with_type": "",
    "federal_district": "Северо-Западный",
    "geo_lat": "62.892033",
    "geo_lon": "54.963455",
    "street_with_type": "ул Октябрьская",
    "region_with_type": "Респ Коми"
  },
  {
    "id": 471418,
    "city": "Талдом",
    "city_district_with_type": "",
    "federal_district": "Центральный",
    "geo_lat": "56.566482",
    "geo_lon": "37.531738",
    "street_with_type": "",
    "region_with_type": "Московская обл"
  },
  {
    "id": 471457,
    "city": "Домодедово",
    "city_district_with_type": "",
    "federal_district": "Центральный",
    "geo_lat": "55.400476",
    "geo_lon": "37.811312",
    "street_with_type": "ул Майская",
    "region_with_type": "Московская обл"
  },
  {
    "id": 471430,
    "city": "Воткинск",
    "city_district_with_type": "",
    "federal_district": "Приволжский",
    "geo_lat": "57.049231",
    "geo_lon": "53.988308",
    "street_with_type": "ул К.Маркса",
    "region_with_type": "Удмуртская Респ"
  },
  {
    "id": 471501,
    "city": "Москва",
    "city_district_with_type": "Восточный р-н",
    "federal_district": "Центральный",
    "geo_lat": "55.816788",
    "geo_lon": "37.866055",
    "street_with_type": "ул 9 Мая",
    "region_with_type": "г Москва"
  },
  {
    "id": 471512,
    "city": "Новоаннинский",
    "city_district_with_type": "",
    "federal_district": "Южный",
    "geo_lat": "50.529658",
    "geo_lon": "42.66667",
    "street_with_type": "",
    "region_with_type": "Волгоградская обл"
  },
  {
    "id": 471656,
    "city": "Воскресенск",
    "city_district_with_type": "",
    "federal_district": "Центральный",
    "geo_lat": "55.312671",
    "geo_lon": "38.663849",
    "street_with_type": "",
    "region_with_type": "Московская обл"
  },
  {
    "id": 471667,
    "city": "Химки",
    "city_district_with_type": "",
    "federal_district": "Центральный",
    "geo_lat": "55.888755",
    "geo_lon": "37.430337",
    "street_with_type": "",
    "region_with_type": "Московская обл"
  },
  {
    "id": 471748,
    "city": "Щёлково",
    "city_district_with_type": "",
    "federal_district": "Центральный",
    "geo_lat": "56.047786",
    "geo_lon": "38.161053",
    "street_with_type": "",
    "region_with_type": "Московская обл"
  },
  {
    "id": 471760,
    "city": "Ворсма",
    "city_district_with_type": "",
    "federal_district": "Приволжский",
    "geo_lat": "55.985478",
    "geo_lon": "43.271757",
    "street_with_type": "Пионерский пер",
    "region_with_type": "Нижегородская обл"
  },
  {
    "id": 471880,
    "city": "Москва",
    "city_district_with_type": "Ломоносовский р-н",
    "federal_district": "Центральный",
    "geo_lat": "55.671341",
    "geo_lon": "37.530912",
    "street_with_type": "ул Академика Пилюгина",
    "region_with_type": "г Москва"
  },
  {
    "id": 471911,
    "city": "Сочи",
    "city_district_with_type": "Адлерский р-н",
    "federal_district": "Южный",
    "geo_lat": "43.6149641",
    "geo_lon": "39.9130728",
    "street_with_type": "ул Пещеры",
    "region_with_type": "Краснодарский край"
  },
  {
    "id": 471939,
    "city": "Раменское",
    "city_district_with_type": "",
    "federal_district": "Центральный",
    "geo_lat": "55.59928",
    "geo_lon": "38.58009",
    "street_with_type": "",
    "region_with_type": "Московская обл"
  },
  {
    "id": 471971,
    "city": "Красногорск",
    "city_district_with_type": "",
    "federal_district": "Центральный",
    "geo_lat": "55.794836",
    "geo_lon": "37.270472",
    "street_with_type": "",
    "region_with_type": "Московская обл"
  },
  {
    "id": 472045,
    "city": "Воронеж",
    "city_district_with_type": "",
    "federal_district": "Центральный",
    "geo_lat": "51.666317",
    "geo_lon": "39.170193",
    "street_with_type": "ул Изобретателей",
    "region_with_type": "Воронежская обл"
  },
  {
    "id": 472088,
    "city": "Солнечногорск",
    "city_district_with_type": "",
    "federal_district": "Центральный",
    "geo_lat": "56.29988",
    "geo_lon": "36.970462",
    "street_with_type": "",
    "region_with_type": "Московская обл"
  },
  {
    "id": 472079,
    "city": "Москва",
    "city_district_with_type": "р-н Раменки",
    "federal_district": "Центральный",
    "geo_lat": "55.71647",
    "geo_lon": "37.533436",
    "street_with_type": "ул Косыгина",
    "region_with_type": "г Москва"
  },
  {
    "id": 472231,
    "city": "Волжский",
    "city_district_with_type": "",
    "federal_district": "Южный",
    "geo_lat": "48.785824",
    "geo_lon": "44.779865",
    "street_with_type": "ул Химиков",
    "region_with_type": "Волгоградская обл"
  },
  {
    "id": 472234,
    "city": "Волжск",
    "city_district_with_type": "",
    "federal_district": "Приволжский",
    "geo_lat": "55.866212",
    "geo_lon": "48.359348",
    "street_with_type": "ул Ленина",
    "region_with_type": "Респ Марий Эл"
  },
  {
    "id": 472278,
    "city": "Вольск",
    "city_district_with_type": "",
    "federal_district": "Приволжский",
    "geo_lat": "52.045967",
    "geo_lon": "47.387317",
    "street_with_type": "",
    "region_with_type": "Саратовская обл"
  },
  {
    "id": 472357,
    "city": "Волосово",
    "city_district_with_type": "",
    "federal_district": "Северо-Западный",
    "geo_lat": "59.4445445",
    "geo_lon": "29.4923489",
    "street_with_type": "",
    "region_with_type": "Ленинградская обл"
  },
  {
    "id": 472431,
    "city": "Волоколамск",
    "city_district_with_type": "",
    "federal_district": "Центральный",
    "geo_lat": "56.019666",
    "geo_lon": "35.938702",
    "street_with_type": "ул Пороховская",
    "region_with_type": "Московская обл"
  },
  {
    "id": 472433,
    "city": "Волоколамск",
    "city_district_with_type": "",
    "federal_district": "Центральный",
    "geo_lat": "56.033213",
    "geo_lon": "35.968068",
    "street_with_type": "ул Парковая",
    "region_with_type": "Московская обл"
  },
  {
    "id": 472452,
    "city": "Санкт-Петербург",
    "city_district_with_type": "Московский р-н",
    "federal_district": "Северо-Западный",
    "geo_lat": "59.86631",
    "geo_lon": "30.316272",
    "street_with_type": "ул Бассейная",
    "region_with_type": "г Санкт-Петербург"
  },
  {
    "id": 472459,
    "city": "Вологда",
    "city_district_with_type": "",
    "federal_district": "Северо-Западный",
    "geo_lat": "59.218622",
    "geo_lon": "39.888657",
    "street_with_type": "ул Марии Ульяновой",
    "region_with_type": "Вологодская обл"
  },
  {
    "id": 472494,
    "city": "Володарск",
    "city_district_with_type": "",
    "federal_district": "Приволжский",
    "geo_lat": "56.226578",
    "geo_lon": "43.18613",
    "street_with_type": "ул Железнодорожная",
    "region_with_type": "Нижегородская обл"
  },
  {
    "id": 472625,
    "city": "Санкт-Петербург",
    "city_district_with_type": "Фрунзенский р-н",
    "federal_district": "Северо-Западный",
    "geo_lat": "59.898318",
    "geo_lon": "30.363533",
    "street_with_type": "ул Грузинская",
    "region_with_type": "г Санкт-Петербург"
  },
  {
    "id": 472650,
    "city": "Лотошино",
    "city_district_with_type": "",
    "federal_district": "Центральный",
    "geo_lat": "56.316164",
    "geo_lon": "35.738018",
    "street_with_type": "",
    "region_with_type": "Московская обл"
  },
  {
    "id": 472663,
    "city": "Серпухов",
    "city_district_with_type": "",
    "federal_district": "Центральный",
    "geo_lat": "54.85673",
    "geo_lon": "37.393955",
    "street_with_type": "",
    "region_with_type": "Московская обл"
  },
  {
    "id": 472714,
    "city": "Великий Новгород",
    "city_district_with_type": "",
    "federal_district": "Северо-Западный",
    "geo_lat": "58.579869",
    "geo_lon": "31.316475",
    "street_with_type": "ул Керамическая",
    "region_with_type": "Новгородская обл"
  },
  {
    "id": 472722,
    "city": "Волхов",
    "city_district_with_type": "",
    "federal_district": "Северо-Западный",
    "geo_lat": "59.900534",
    "geo_lon": "32.352133",
    "street_with_type": "",
    "region_with_type": "Ленинградская обл"
  },
  {
    "id": 472732,
    "city": "Москва",
    "city_district_with_type": "Нагорный р-н",
    "federal_district": "Центральный",
    "geo_lat": "55.649467",
    "geo_lon": "37.61624",
    "street_with_type": "ул Артековская",
    "region_with_type": "г Москва"
  },
  {
    "id": 472750,
    "city": "Волгореченск",
    "city_district_with_type": "",
    "federal_district": "Центральный",
    "geo_lat": "57.439522",
    "geo_lon": "41.156027",
    "street_with_type": "ул Имени 50-летия Ленинского Комсомола",
    "region_with_type": "Костромская обл"
  },
  {
    "id": 472757,
    "city": "Волгоград",
    "city_district_with_type": "Дзержинский р-н",
    "federal_district": "Южный",
    "geo_lat": "48.71933",
    "geo_lon": "44.501595",
    "street_with_type": "ул Черноморская",
    "region_with_type": "Волгоградская обл"
  },
  {
    "id": 472761,
    "city": "Волгодонск",
    "city_district_with_type": "",
    "federal_district": "Южный",
    "geo_lat": "47.513851",
    "geo_lon": "42.1517279",
    "street_with_type": "ул М.Горького",
    "region_with_type": "Ростовская обл"
  },
  {
    "id": 472795,
    "city": "Талдом",
    "city_district_with_type": "",
    "federal_district": "Центральный",
    "geo_lat": "56.733156",
    "geo_lon": "37.317266",
    "street_with_type": "",
    "region_with_type": "Московская обл"
  },
  {
    "id": 472871,
    "city": "Костомукша",
    "city_district_with_type": "",
    "federal_district": "Северо-Западный",
    "geo_lat": "64.951074",
    "geo_lon": "30.5536871",
    "street_with_type": "",
    "region_with_type": "Респ Карелия"
  },
  {
    "id": 472900,
    "city": "Орехово-Зуево",
    "city_district_with_type": "",
    "federal_district": "Центральный",
    "geo_lat": "55.8151375",
    "geo_lon": "38.9869769",
    "street_with_type": "",
    "region_with_type": "Московская обл"
  },
  {
    "id": 472942,
    "city": "Волгоград",
    "city_district_with_type": "Тракторозаводский р-н",
    "federal_district": "Южный",
    "geo_lat": "48.841818",
    "geo_lon": "44.559151",
    "street_with_type": "",
    "region_with_type": "Волгоградская обл"
  },
  {
    "id": 472976,
    "city": "Ухта",
    "city_district_with_type": "",
    "federal_district": "Северо-Западный",
    "geo_lat": "63.5045157",
    "geo_lon": "53.4088792",
    "street_with_type": "ул Ленина",
    "region_with_type": "Респ Коми"
  },
  {
    "id": 472982,
    "city": "Долгопрудный",
    "city_district_with_type": "",
    "federal_district": "Центральный",
    "geo_lat": "55.9667",
    "geo_lon": "37.500531",
    "street_with_type": "ул Мичурина",
    "region_with_type": "Московская обл"
  },
  {
    "id": 473020,
    "city": "Москва",
    "city_district_with_type": "Новомосковский округ",
    "federal_district": "Центральный",
    "geo_lat": "55.6446388",
    "geo_lon": "37.2657358",
    "street_with_type": "",
    "region_with_type": "г Москва"
  },
  {
    "id": 473021,
    "city": "Москва",
    "city_district_with_type": "Новомосковский округ",
    "federal_district": "Центральный",
    "geo_lat": "55.615104",
    "geo_lon": "37.2191344",
    "street_with_type": "ул Мира",
    "region_with_type": "г Москва"
  },
  {
    "id": 473022,
    "city": "Орехово-Зуево",
    "city_district_with_type": "",
    "federal_district": "Центральный",
    "geo_lat": "55.458858",
    "geo_lon": "38.916797",
    "street_with_type": "",
    "region_with_type": "Московская обл"
  },
  {
    "id": 473051,
    "city": "Москва",
    "city_district_with_type": "Троицкий округ",
    "federal_district": "Центральный",
    "geo_lat": "55.4599512",
    "geo_lon": "37.3794641",
    "street_with_type": "",
    "region_with_type": "г Москва"
  },
  {
    "id": 473083,
    "city": "Лотошино",
    "city_district_with_type": "",
    "federal_district": "Центральный",
    "geo_lat": "56.227555",
    "geo_lon": "35.908824",
    "street_with_type": "",
    "region_with_type": "Московская обл"
  },
  {
    "id": 473085,
    "city": "Павловский Посад",
    "city_district_with_type": "",
    "federal_district": "Центральный",
    "geo_lat": "55.702414",
    "geo_lon": "38.560157",
    "street_with_type": "",
    "region_with_type": "Московская обл"
  },
  {
    "id": 473087,
    "city": "Раменское",
    "city_district_with_type": "",
    "federal_district": "Центральный",
    "geo_lat": "55.670478",
    "geo_lon": "38.159544",
    "street_with_type": "",
    "region_with_type": "Московская обл"
  },
  {
    "id": 473142,
    "city": "Москва",
    "city_district_with_type": "Ивановское р-н",
    "federal_district": "Центральный",
    "geo_lat": "55.749587",
    "geo_lon": "37.833357",
    "street_with_type": "ул Сталеваров",
    "region_with_type": "г Москва"
  },
  {
    "id": 473157,
    "city": "Москва",
    "city_district_with_type": "р-н Перово",
    "federal_district": "Центральный",
    "geo_lat": "55.7622997",
    "geo_lon": "37.7808658",
    "street_with_type": "ул 2-я Владимирская",
    "region_with_type": "г Москва"
  },
  {
    "id": 473236,
    "city": "Новороссийск",
    "city_district_with_type": "",
    "federal_district": "Южный",
    "geo_lat": "44.7881007",
    "geo_lon": "37.6771385",
    "street_with_type": "ул Заводская",
    "region_with_type": "Краснодарский край"
  },
  {
    "id": 473247,
    "city": "Владимир",
    "city_district_with_type": "",
    "federal_district": "Центральный",
    "geo_lat": "56.136574",
    "geo_lon": "40.39678",
    "street_with_type": "ул Мира",
    "region_with_type": "Владимирская обл"
  },
  {
    "id": 473249,
    "city": "Владикавказ",
    "city_district_with_type": "",
    "federal_district": "Северо-Кавказский",
    "geo_lat": "43.036802",
    "geo_lon": "44.668018",
    "street_with_type": "ул Тогоева",
    "region_with_type": "Респ Северная Осетия - Алания"
  },
  {
    "id": 473295,
    "city": "Анапа",
    "city_district_with_type": "",
    "federal_district": "Южный",
    "geo_lat": "44.992862",
    "geo_lon": "37.271685",
    "street_with_type": "ул Комарова",
    "region_with_type": "Краснодарский край"
  },
  {
    "id": 473325,
    "city": "Мытищи",
    "city_district_with_type": "",
    "federal_district": "Центральный",
    "geo_lat": "56.050037",
    "geo_lon": "37.683384",
    "street_with_type": "ул Некрасова",
    "region_with_type": "Московская обл"
  },
  {
    "id": 473442,
    "city": "Сочи",
    "city_district_with_type": "",
    "federal_district": "Южный",
    "geo_lat": "44.007334",
    "geo_lon": "39.187591",
    "street_with_type": "ул Майкопская",
    "region_with_type": "Краснодарский край"
  },
  {
    "id": 473537,
    "city": "Воскресенск",
    "city_district_with_type": "",
    "federal_district": "Центральный",
    "geo_lat": "55.423172",
    "geo_lon": "38.545999",
    "street_with_type": "ул Центральная",
    "region_with_type": "Московская обл"
  },
  {
    "id": 473562,
    "city": "Ульяновск",
    "city_district_with_type": "Железнодорожный р-н",
    "federal_district": "Приволжский",
    "geo_lat": "54.266615",
    "geo_lon": "48.350149",
    "street_with_type": "пер Сельский 1-й",
    "region_with_type": "Ульяновская обл"
  },
  {
    "id": 473611,
    "city": "Выкса",
    "city_district_with_type": "",
    "federal_district": "Приволжский",
    "geo_lat": "55.245656",
    "geo_lon": "42.20888",
    "street_with_type": "ул Выксунская",
    "region_with_type": "Нижегородская обл"
  },
  {
    "id": 473712,
    "city": "Санкт-Петербург",
    "city_district_with_type": "Петродворцовый р-н",
    "federal_district": "Северо-Западный",
    "geo_lat": "59.849763",
    "geo_lon": "30.017367",
    "street_with_type": "Волхонское шоссе",
    "region_with_type": "г Санкт-Петербург"
  },
  {
    "id": 473749,
    "city": "Лесное",
    "city_district_with_type": "",
    "federal_district": "Центральный",
    "geo_lat": "58.250344",
    "geo_lon": "35.331234",
    "street_with_type": "",
    "region_with_type": "Тверская обл"
  },
  {
    "id": 473762,
    "city": "Кола",
    "city_district_with_type": "",
    "federal_district": "Северо-Западный",
    "geo_lat": "68.883527",
    "geo_lon": "33.016455",
    "street_with_type": "пр-кт Защитников Заполярья",
    "region_with_type": "Мурманская обл"
  },
  {
    "id": 473778,
    "city": "Видное",
    "city_district_with_type": "",
    "federal_district": "Центральный",
    "geo_lat": "55.552374",
    "geo_lon": "37.709888",
    "street_with_type": "ул Советская",
    "region_with_type": "Московская обл"
  },
  {
    "id": 473788,
    "city": "Вичуга",
    "city_district_with_type": "",
    "federal_district": "Центральный",
    "geo_lat": "57.2045538",
    "geo_lon": "41.9131413",
    "street_with_type": "",
    "region_with_type": "Ивановская обл"
  },
  {
    "id": 473903,
    "city": "Шарья",
    "city_district_with_type": "",
    "federal_district": "Центральный",
    "geo_lat": "58.390441",
    "geo_lon": "45.46547",
    "street_with_type": "ул Дружбы",
    "region_with_type": "Костромская обл"
  },
  {
    "id": 473910,
    "city": "Ветлуга",
    "city_district_with_type": "",
    "federal_district": "Приволжский",
    "geo_lat": "57.855863",
    "geo_lon": "45.776251",
    "street_with_type": "",
    "region_with_type": "Нижегородская обл"
  },
  {
    "id": 473943,
    "city": "Весьегонск",
    "city_district_with_type": "",
    "federal_district": "Центральный",
    "geo_lat": "58.664257",
    "geo_lon": "37.260824",
    "street_with_type": "ул Степанова",
    "region_with_type": "Тверская обл"
  },
  {
    "id": 473972,
    "city": "Москва",
    "city_district_with_type": "р-н Вешняки",
    "federal_district": "Центральный",
    "geo_lat": "55.718315",
    "geo_lon": "37.822693",
    "street_with_type": "ул Вешняковская",
    "region_with_type": "г Москва"
  },
  {
    "id": 474013,
    "city": "Санкт-Петербург",
    "city_district_with_type": "Невский р-н",
    "federal_district": "Северо-Западный",
    "geo_lat": "59.906783",
    "geo_lon": "30.476433",
    "street_with_type": "ул Дыбенко",
    "region_with_type": "г Санкт-Петербург"
  },
  {
    "id": 474163,
    "city": "Ступино",
    "city_district_with_type": "",
    "federal_district": "Центральный",
    "geo_lat": "55.020172",
    "geo_lon": "38.089844",
    "street_with_type": "",
    "region_with_type": "Московская обл"
  },
  {
    "id": 474207,
    "city": "Солнечногорск",
    "city_district_with_type": "",
    "federal_district": "Центральный",
    "geo_lat": "56.232604",
    "geo_lon": "36.965449",
    "street_with_type": "",
    "region_with_type": "Московская обл"
  },
  {
    "id": 474462,
    "city": "Верхняя Тура",
    "city_district_with_type": "",
    "federal_district": "Уральский",
    "geo_lat": "58.359333",
    "geo_lon": "59.818626",
    "street_with_type": "ул Советская",
    "region_with_type": "Свердловская обл"
  },
  {
    "id": 474603,
    "city": "Сыктывкар",
    "city_district_with_type": "",
    "federal_district": "Северо-Западный",
    "geo_lat": "61.633198",
    "geo_lon": "50.967023",
    "street_with_type": "",
    "region_with_type": "Респ Коми"
  },
  {
    "id": 474751,
    "city": "Волжский",
    "city_district_with_type": "",
    "federal_district": "Южный",
    "geo_lat": "48.77195",
    "geo_lon": "44.789599",
    "street_with_type": "пр-кт Дружбы",
    "region_with_type": "Волгоградская обл"
  },
  {
    "id": 474821,
    "city": "Верхний Тагил",
    "city_district_with_type": "",
    "federal_district": "Уральский",
    "geo_lat": "57.373398",
    "geo_lon": "59.954766",
    "street_with_type": "ул Советская",
    "region_with_type": "Свердловская обл"
  },
  {
    "id": 475092,
    "city": "Москва",
    "city_district_with_type": "Нагорный р-н",
    "federal_district": "Центральный",
    "geo_lat": "55.6768",
    "geo_lon": "37.615948",
    "street_with_type": "Электролитный проезд",
    "region_with_type": "г Москва"
  },
  {
    "id": 475255,
    "city": "Раменское",
    "city_district_with_type": "",
    "federal_district": "Центральный",
    "geo_lat": "55.442546",
    "geo_lon": "38.214179",
    "street_with_type": "",
    "region_with_type": "Московская обл"
  },
  {
    "id": 475259,
    "city": "Москва",
    "city_district_with_type": "Новомосковский округ",
    "federal_district": "Центральный",
    "geo_lat": "55.5771262",
    "geo_lon": "37.3531686",
    "street_with_type": "",
    "region_with_type": "г Москва"
  },
  {
    "id": 475279,
    "city": "Орёл",
    "city_district_with_type": "Северный р-н",
    "federal_district": "Центральный",
    "geo_lat": "52.9999",
    "geo_lon": "36.133797",
    "street_with_type": "Московское шоссе",
    "region_with_type": "Орловская обл"
  },
  {
    "id": 475463,
    "city": "Верхнеуральск",
    "city_district_with_type": "",
    "federal_district": "Уральский",
    "geo_lat": "53.8770011",
    "geo_lon": "59.2107808",
    "street_with_type": "ул Ленина",
    "region_with_type": "Челябинская обл"
  },
  {
    "id": 475508,
    "city": "Одинцово",
    "city_district_with_type": "",
    "federal_district": "Центральный",
    "geo_lat": "55.733391",
    "geo_lon": "37.350045",
    "street_with_type": "ул Железнодорожная",
    "region_with_type": "Московская обл"
  },
  {
    "id": 475619,
    "city": "Чусовой",
    "city_district_with_type": "",
    "federal_district": "Приволжский",
    "geo_lat": "58.167171",
    "geo_lon": "57.10752",
    "street_with_type": "ул Кирова",
    "region_with_type": "Пермский край"
  },
  {
    "id": 475642,
    "city": "Новороссийск",
    "city_district_with_type": "",
    "federal_district": "Южный",
    "geo_lat": "44.842243",
    "geo_lon": "37.663575",
    "street_with_type": "ул Ленина",
    "region_with_type": "Краснодарский край"
  },
  {
    "id": 475689,
    "city": "Владимир",
    "city_district_with_type": "",
    "federal_district": "Центральный",
    "geo_lat": "56.150354",
    "geo_lon": "40.433369",
    "street_with_type": "ул Северная",
    "region_with_type": "Владимирская обл"
  },
  {
    "id": 475699,
    "city": "Орехово-Зуево",
    "city_district_with_type": "",
    "federal_district": "Центральный",
    "geo_lat": "55.773722",
    "geo_lon": "39.097753",
    "street_with_type": "ул Центральная",
    "region_with_type": "Московская обл"
  },
  {
    "id": 475700,
    "city": "Раменское",
    "city_district_with_type": "",
    "federal_district": "Центральный",
    "geo_lat": "55.614643",
    "geo_lon": "38.03916",
    "street_with_type": "",
    "region_with_type": "Московская обл"
  },
  {
    "id": 475701,
    "city": "Верея",
    "city_district_with_type": "",
    "federal_district": "Центральный",
    "geo_lat": "55.344883",
    "geo_lon": "36.17188",
    "street_with_type": "ул Спартаковская",
    "region_with_type": "Московская обл"
  },
  {
    "id": 475777,
    "city": "Верещагино",
    "city_district_with_type": "",
    "federal_district": "Приволжский",
    "geo_lat": "58.078881",
    "geo_lon": "54.656215",
    "street_with_type": "ул К.Маркса",
    "region_with_type": "Пермский край"
  },
  {
    "id": 475819,
    "city": "Муром",
    "city_district_with_type": "",
    "federal_district": "Центральный",
    "geo_lat": "55.53238",
    "geo_lon": "41.97054",
    "street_with_type": "ул Мечтателей",
    "region_with_type": "Владимирская обл"
  },
  {
    "id": 475845,
    "city": "Талдом",
    "city_district_with_type": "",
    "federal_district": "Центральный",
    "geo_lat": "56.53348",
    "geo_lon": "37.60027",
    "street_with_type": "ул Огородная",
    "region_with_type": "Московская обл"
  },
  {
    "id": 475881,
    "city": "Венев",
    "city_district_with_type": "",
    "federal_district": "Центральный",
    "geo_lat": "54.355181",
    "geo_lon": "38.268842",
    "street_with_type": "ул Декабристов",
    "region_with_type": "Тульская обл"
  },
  {
    "id": 475921,
    "city": "Истра",
    "city_district_with_type": "",
    "federal_district": "Центральный",
    "geo_lat": "55.875758",
    "geo_lon": "36.921324",
    "street_with_type": "",
    "region_with_type": "Московская обл"
  },
  {
    "id": 475923,
    "city": "Домодедово",
    "city_district_with_type": "",
    "federal_district": "Центральный",
    "geo_lat": "55.191128",
    "geo_lon": "37.870823",
    "street_with_type": "",
    "region_with_type": "Московская обл"
  },
  {
    "id": 475927,
    "city": "Туапсе",
    "city_district_with_type": "",
    "federal_district": "Южный",
    "geo_lat": "44.099937",
    "geo_lon": "39.100216",
    "street_with_type": "ул Пушкина",
    "region_with_type": "Краснодарский край"
  },
  {
    "id": 475938,
    "city": "Вельск",
    "city_district_with_type": "",
    "federal_district": "Северо-Западный",
    "geo_lat": "61.070246",
    "geo_lon": "42.098073",
    "street_with_type": "ул Ломоносова",
    "region_with_type": "Архангельская обл"
  },
  {
    "id": 475955,
    "city": "Велиж",
    "city_district_with_type": "",
    "federal_district": "Центральный",
    "geo_lat": "55.605566",
    "geo_lon": "31.197115",
    "street_with_type": "ул Кропоткина",
    "region_with_type": "Смоленская обл"
  },
  {
    "id": 475965,
    "city": "Орехово-Зуево",
    "city_district_with_type": "",
    "federal_district": "Центральный",
    "geo_lat": "55.564317",
    "geo_lon": "39.116735",
    "street_with_type": "",
    "region_with_type": "Московская обл"
  },
  {
    "id": 476062,
    "city": "Великий Устюг",
    "city_district_with_type": "",
    "federal_district": "Северо-Западный",
    "geo_lat": "60.764452",
    "geo_lon": "46.310533",
    "street_with_type": "ул Луначарского",
    "region_with_type": "Вологодская обл"
  },
  {
    "id": 476077,
    "city": "Великие Луки",
    "city_district_with_type": "",
    "federal_district": "Северо-Западный",
    "geo_lat": "56.340405",
    "geo_lon": "30.54546",
    "street_with_type": "пр-кт Гагарина",
    "region_with_type": "Псковская обл"
  },
  {
    "id": 476173,
    "city": "Истра",
    "city_district_with_type": "",
    "federal_district": "Центральный",
    "geo_lat": "55.798012",
    "geo_lon": "37.118406",
    "street_with_type": "ул Живописная",
    "region_with_type": "Московская обл"
  },
  {
    "id": 476368,
    "city": "Москва",
    "city_district_with_type": "Лосиноостровский р-н",
    "federal_district": "Центральный",
    "geo_lat": "55.879995",
    "geo_lon": "37.686509",
    "street_with_type": "ул Тайнинская",
    "region_with_type": "г Москва"
  },
  {
    "id": 476538,
    "city": "Ступино",
    "city_district_with_type": "",
    "federal_district": "Центральный",
    "geo_lat": "55.120799",
    "geo_lon": "38.08299",
    "street_with_type": "",
    "region_with_type": "Московская обл"
  },
  {
    "id": 476540,
    "city": "Серпухов",
    "city_district_with_type": "",
    "federal_district": "Центральный",
    "geo_lat": "55.001938",
    "geo_lon": "37.4228",
    "street_with_type": "",
    "region_with_type": "Московская обл"
  },
  {
    "id": 476595,
    "city": "Электроугли",
    "city_district_with_type": "",
    "federal_district": "Центральный",
    "geo_lat": "55.717001",
    "geo_lon": "38.219318",
    "street_with_type": "",
    "region_with_type": "Московская обл"
  },
  {
    "id": 476798,
    "city": "Егорьевск",
    "city_district_with_type": "",
    "federal_district": "Центральный",
    "geo_lat": "55.384503",
    "geo_lon": "39.203126",
    "street_with_type": "",
    "region_with_type": "Московская обл"
  },
  {
    "id": 477047,
    "city": "Сочи",
    "city_district_with_type": "",
    "federal_district": "Южный",
    "geo_lat": "43.7315666",
    "geo_lon": "39.5514352",
    "street_with_type": "ул Молодежная",
    "region_with_type": "Краснодарский край"
  },
  {
    "id": 477109,
    "city": "Дмитров",
    "city_district_with_type": "",
    "federal_district": "Центральный",
    "geo_lat": "56.260993",
    "geo_lon": "37.704691",
    "street_with_type": "",
    "region_with_type": "Московская обл"
  },
  {
    "id": 477192,
    "city": "Валуйки",
    "city_district_with_type": "",
    "federal_district": "Центральный",
    "geo_lat": "50.203534",
    "geo_lon": "38.106835",
    "street_with_type": "ул Коммунистическая",
    "region_with_type": "Белгородская обл"
  },
  {
    "id": 477267,
    "city": "Подольск",
    "city_district_with_type": "",
    "federal_district": "Центральный",
    "geo_lat": "55.325733",
    "geo_lon": "37.673771",
    "street_with_type": "",
    "region_with_type": "Московская обл"
  },
  {
    "id": 477280,
    "city": "Качканар",
    "city_district_with_type": "",
    "federal_district": "Уральский",
    "geo_lat": "58.759822",
    "geo_lon": "59.55188",
    "street_with_type": "ул Кирова",
    "region_with_type": "Свердловская обл"
  },
  {
    "id": 477283,
    "city": "Королёв",
    "city_district_with_type": "",
    "federal_district": "Центральный",
    "geo_lat": "55.909292",
    "geo_lon": "37.890157",
    "street_with_type": "ул Ф.Энгельса",
    "region_with_type": "Московская обл"
  },
  {
    "id": 477301,
    "city": "Валдай",
    "city_district_with_type": "",
    "federal_district": "Северо-Западный",
    "geo_lat": "57.97477",
    "geo_lon": "33.252605",
    "street_with_type": "ул Труда",
    "region_with_type": "Новгородская обл"
  },
  {
    "id": 477337,
    "city": "Шахунья",
    "city_district_with_type": "",
    "federal_district": "Приволжский",
    "geo_lat": "57.95963",
    "geo_lon": "46.700016",
    "street_with_type": "",
    "region_with_type": "Нижегородская обл"
  },
  {
    "id": 477450,
    "city": "Алкинский",
    "city_district_with_type": "",
    "federal_district": "Приволжский",
    "geo_lat": "54.6565428",
    "geo_lon": "55.5146026",
    "street_with_type": "",
    "region_with_type": "Респ Башкортостан"
  },
  {
    "id": 477466,
    "city": "Серебряные Пруды",
    "city_district_with_type": "",
    "federal_district": "Центральный",
    "geo_lat": "54.536282",
    "geo_lon": "38.614891",
    "street_with_type": "",
    "region_with_type": "Московская обл"
  },
  {
    "id": 477473,
    "city": "Городец",
    "city_district_with_type": "",
    "federal_district": "Приволжский",
    "geo_lat": "56.649967",
    "geo_lon": "43.4667703",
    "street_with_type": "ул Я.Петрова",
    "region_with_type": "Нижегородская обл"
  },
  {
    "id": 477494,
    "city": "Узловая",
    "city_district_with_type": "",
    "federal_district": "Центральный",
    "geo_lat": "53.982178",
    "geo_lon": "38.17036",
    "street_with_type": "ул Стрелковая",
    "region_with_type": "Тульская обл"
  },
  {
    "id": 477622,
    "city": "Домодедово",
    "city_district_with_type": "",
    "federal_district": "Центральный",
    "geo_lat": "55.284615",
    "geo_lon": "37.943814",
    "street_with_type": "тер. СНТ Северка",
    "region_with_type": "Московская обл"
  },
  {
    "id": 477626,
    "city": "Уварово",
    "city_district_with_type": "",
    "federal_district": "Центральный",
    "geo_lat": "51.985096",
    "geo_lon": "42.261287",
    "street_with_type": "мкр 3",
    "region_with_type": "Тамбовская обл"
  },
  {
    "id": 477629,
    "city": "Можайск",
    "city_district_with_type": "",
    "federal_district": "Центральный",
    "geo_lat": "55.528105",
    "geo_lon": "35.606271",
    "street_with_type": "ул Урицкого",
    "region_with_type": "Московская обл"
  },
  {
    "id": 477795,
    "city": "Устюжна",
    "city_district_with_type": "",
    "federal_district": "Северо-Западный",
    "geo_lat": "58.839658",
    "geo_lon": "36.43238",
    "street_with_type": "ул Трудовой Коммуны",
    "region_with_type": "Вологодская обл"
  },
  {
    "id": 477969,
    "city": "Орёл",
    "city_district_with_type": "",
    "federal_district": "Центральный",
    "geo_lat": "52.967187",
    "geo_lon": "36.069613",
    "street_with_type": "",
    "region_with_type": "Орловская обл"
  },
  {
    "id": 478044,
    "city": "Усть-Лабинск",
    "city_district_with_type": "",
    "federal_district": "Южный",
    "geo_lat": "45.212513",
    "geo_lon": "39.68607",
    "street_with_type": "ул Коминтерна",
    "region_with_type": "Краснодарский край"
  },
  {
    "id": 478071,
    "city": "Усть-Катав",
    "city_district_with_type": "",
    "federal_district": "Уральский",
    "geo_lat": "54.926068",
    "geo_lon": "58.152898",
    "street_with_type": "",
    "region_with_type": "Челябинская обл"
  },
  {
    "id": 478080,
    "city": "Санкт-Петербург",
    "city_district_with_type": "Колпинский р-н",
    "federal_district": "Северо-Западный",
    "geo_lat": "59.807803",
    "geo_lon": "30.573514",
    "street_with_type": "",
    "region_with_type": "г Санкт-Петербург"
  },
  {
    "id": 478093,
    "city": "Кимры",
    "city_district_with_type": "",
    "federal_district": "Центральный",
    "geo_lat": "57.080336",
    "geo_lon": "37.323123",
    "street_with_type": "ул Центральная",
    "region_with_type": "Тверская обл"
  },
  {
    "id": 478130,
    "city": "Усть-Джегута",
    "city_district_with_type": "",
    "federal_district": "Северо-Кавказский",
    "geo_lat": "44.083513",
    "geo_lon": "41.975988",
    "street_with_type": "ул Курортная",
    "region_with_type": "Карачаево-Черкесская Респ"
  },
  {
    "id": 478269,
    "city": "Усолье",
    "city_district_with_type": "",
    "federal_district": "Приволжский",
    "geo_lat": "59.426753",
    "geo_lon": "56.680745",
    "street_with_type": "ул Солеваров",
    "region_with_type": "Пермский край"
  },
  {
    "id": 478317,
    "city": "Усмань",
    "city_district_with_type": "",
    "federal_district": "Центральный",
    "geo_lat": "52.045972",
    "geo_lon": "39.728577",
    "street_with_type": "ул Чернышевского",
    "region_with_type": "Липецкая обл"
  },
  {
    "id": 478323,
    "city": "Подольск",
    "city_district_with_type": "",
    "federal_district": "Центральный",
    "geo_lat": "55.464896",
    "geo_lon": "37.641926",
    "street_with_type": "ул Фабричная",
    "region_with_type": "Московская обл"
  },
  {
    "id": 478349,
    "city": "Усинск",
    "city_district_with_type": "",
    "federal_district": "Северо-Западный",
    "geo_lat": "65.951331",
    "geo_lon": "57.460944",
    "street_with_type": "",
    "region_with_type": "Респ Коми"
  },
  {
    "id": 478367,
    "city": "Зеленогорск",
    "city_district_with_type": "",
    "federal_district": "Северо-Западный",
    "geo_lat": "60.196986",
    "geo_lon": "29.705876",
    "street_with_type": "",
    "region_with_type": "г Санкт-Петербург"
  },
  {
    "id": 478485,
    "city": "Ступино",
    "city_district_with_type": "",
    "federal_district": "Центральный",
    "geo_lat": "55.141845",
    "geo_lon": "37.895682",
    "street_with_type": "",
    "region_with_type": "Московская обл"
  },
  {
    "id": 478505,
    "city": "Воскресенск",
    "city_district_with_type": "",
    "federal_district": "Центральный",
    "geo_lat": "55.398876",
    "geo_lon": "38.75447",
    "street_with_type": "ул Воронцова",
    "region_with_type": "Московская обл"
  },
  {
    "id": 478532,
    "city": "Уржум",
    "city_district_with_type": "",
    "federal_district": "Приволжский",
    "geo_lat": "57.1142",
    "geo_lon": "49.99995",
    "street_with_type": "ул Рокина",
    "region_with_type": "Кировская обл"
  },
  {
    "id": 478544,
    "city": "Урюпинск",
    "city_district_with_type": "",
    "federal_district": "Южный",
    "geo_lat": "50.8048077",
    "geo_lon": "42.0137864",
    "street_with_type": "ул Краснознаменная",
    "region_with_type": "Волгоградская обл"
  },
  {
    "id": 478631,
    "city": "Альметьевск",
    "city_district_with_type": "",
    "federal_district": "Приволжский",
    "geo_lat": "54.901383",
    "geo_lon": "52.297113",
    "street_with_type": "",
    "region_with_type": "Респ Татарстан"
  },
  {
    "id": 478724,
    "city": "Санкт-Петербург",
    "city_district_with_type": "Красносельский р-н",
    "federal_district": "Северо-Западный",
    "geo_lat": "59.838349",
    "geo_lon": "30.174401",
    "street_with_type": "ул Партизана Германа",
    "region_with_type": "г Санкт-Петербург"
  },
  {
    "id": 478757,
    "city": "Урень",
    "city_district_with_type": "",
    "federal_district": "Приволжский",
    "geo_lat": "57.455155",
    "geo_lon": "45.785531",
    "street_with_type": "ул Попова",
    "region_with_type": "Нижегородская обл"
  },
  {
    "id": 478849,
    "city": "Нижний Тагил",
    "city_district_with_type": "Ленинский р-н",
    "federal_district": "Уральский",
    "geo_lat": "57.659718",
    "geo_lon": "59.653461",
    "street_with_type": "",
    "region_with_type": "Свердловская обл"
  },
  {
    "id": 479028,
    "city": "Унеча",
    "city_district_with_type": "",
    "federal_district": "Центральный",
    "geo_lat": "52.845849",
    "geo_lon": "32.674161",
    "street_with_type": "ул Пролетарская",
    "region_with_type": "Брянская обл"
  },
  {
    "id": 479123,
    "city": "Ульяновск",
    "city_district_with_type": "Ленинский р-н",
    "federal_district": "Приволжский",
    "geo_lat": "54.333317",
    "geo_lon": "48.400436",
    "street_with_type": "ул Радищева",
    "region_with_type": "Ульяновская обл"
  },
  {
    "id": 479179,
    "city": "Раменское",
    "city_district_with_type": "",
    "federal_district": "Центральный",
    "geo_lat": "55.350325",
    "geo_lon": "38.429353",
    "street_with_type": "",
    "region_with_type": "Московская обл"
  },
  {
    "id": 479411,
    "city": "Ухта",
    "city_district_with_type": "",
    "federal_district": "Северо-Западный",
    "geo_lat": "63.567238",
    "geo_lon": "53.683258",
    "street_with_type": "пр-кт Космонавтов",
    "region_with_type": "Респ Коми"
  },
  {
    "id": 479472,
    "city": "Калуга",
    "city_district_with_type": "",
    "federal_district": "Центральный",
    "geo_lat": "54.507693",
    "geo_lon": "36.084418",
    "street_with_type": "",
    "region_with_type": "Калужская обл"
  },
  {
    "id": 479487,
    "city": "Нарьян-Мар",
    "city_district_with_type": "",
    "federal_district": "Северо-Западный",
    "geo_lat": "67.638067",
    "geo_lon": "53.006872",
    "street_with_type": "",
    "region_with_type": "Ненецкий АО"
  },
  {
    "id": 479532,
    "city": "Углич",
    "city_district_with_type": "",
    "federal_district": "Центральный",
    "geo_lat": "57.527298",
    "geo_lon": "38.331013",
    "street_with_type": "ул Октябрьская",
    "region_with_type": "Ярославская обл"
  },
  {
    "id": 479535,
    "city": "Губаха",
    "city_district_with_type": "",
    "federal_district": "Приволжский",
    "geo_lat": "58.953398",
    "geo_lon": "57.58475",
    "street_with_type": "ул 2-я Коммунистическая",
    "region_with_type": "Пермский край"
  },
  {
    "id": 479561,
    "city": "Уфа",
    "city_district_with_type": "",
    "federal_district": "Приволжский",
    "geo_lat": "54.77507",
    "geo_lon": "56.03672",
    "street_with_type": "ул Российская",
    "region_with_type": "Респ Башкортостан"
  },
  {
    "id": 479640,
    "city": "Люберцы",
    "city_district_with_type": "",
    "federal_district": "Центральный",
    "geo_lat": "55.625216",
    "geo_lon": "38.00242",
    "street_with_type": "Быковское шоссе",
    "region_with_type": "Московская обл"
  },
  {
    "id": 479704,
    "city": "Учалы",
    "city_district_with_type": "",
    "federal_district": "Приволжский",
    "geo_lat": "54.3067023",
    "geo_lon": "59.4126433",
    "street_with_type": "",
    "region_with_type": "Респ Башкортостан"
  },
  {
    "id": 479716,
    "city": "Одинцово",
    "city_district_with_type": "",
    "federal_district": "Центральный",
    "geo_lat": "55.729615",
    "geo_lon": "37.102514",
    "street_with_type": "",
    "region_with_type": "Московская обл"
  },
  {
    "id": 479751,
    "city": "Ступино",
    "city_district_with_type": "",
    "federal_district": "Центральный",
    "geo_lat": "55.221537",
    "geo_lon": "38.045081",
    "street_with_type": "",
    "region_with_type": "Московская обл"
  },
  {
    "id": 479933,
    "city": "Тырныауз",
    "city_district_with_type": "",
    "federal_district": "Северо-Кавказский",
    "geo_lat": "43.398163",
    "geo_lon": "42.921423",
    "street_with_type": "",
    "region_with_type": "Кабардино-Балкарская Респ"
  },
  {
    "id": 479985,
    "city": "Раменское",
    "city_district_with_type": "",
    "federal_district": "Центральный",
    "geo_lat": "55.450399",
    "geo_lon": "38.186898",
    "street_with_type": "",
    "region_with_type": "Московская обл"
  },
  {
    "id": 479999,
    "city": "Санкт-Петербург",
    "city_district_with_type": "Пушкинский р-н",
    "federal_district": "Северо-Западный",
    "geo_lat": "59.700447",
    "geo_lon": "30.456913",
    "street_with_type": "ул Луговая",
    "region_with_type": "г Санкт-Петербург"
  },
  {
    "id": 480041,
    "city": "Торжок",
    "city_district_with_type": "",
    "federal_district": "Центральный",
    "geo_lat": "57.041338",
    "geo_lon": "34.96014",
    "street_with_type": "",
    "region_with_type": "Тверская обл"
  },
  {
    "id": 480060,
    "city": "Тверь",
    "city_district_with_type": "",
    "federal_district": "Центральный",
    "geo_lat": "56.861176",
    "geo_lon": "35.892879",
    "street_with_type": "пл Победы",
    "region_with_type": "Тверская обл"
  },
  {
    "id": 480089,
    "city": "Туймазы",
    "city_district_with_type": "",
    "federal_district": "Приволжский",
    "geo_lat": "54.606528",
    "geo_lon": "53.709714",
    "street_with_type": "ул 70 лет Октября",
    "region_with_type": "Респ Башкортостан"
  },
  {
    "id": 480107,
    "city": "Ступино",
    "city_district_with_type": "",
    "federal_district": "Центральный",
    "geo_lat": "54.870785",
    "geo_lon": "37.991586",
    "street_with_type": "ул Болотная",
    "region_with_type": "Московская обл"
  },
  {
    "id": 480122,
    "city": "Тутаев",
    "city_district_with_type": "",
    "federal_district": "Центральный",
    "geo_lat": "57.885166",
    "geo_lon": "39.54037",
    "street_with_type": "ул Ленина",
    "region_with_type": "Ярославская обл"
  },
  {
    "id": 480145,
    "city": "Москва",
    "city_district_with_type": "р-н Южное Тушино",
    "federal_district": "Центральный",
    "geo_lat": "55.847558",
    "geo_lon": "37.419143",
    "street_with_type": "проезд Донелайтиса",
    "region_with_type": "г Москва"
  },
  {
    "id": 480209,
    "city": "Серпухов",
    "city_district_with_type": "",
    "federal_district": "Центральный",
    "geo_lat": "54.879319",
    "geo_lon": "37.823718",
    "street_with_type": "",
    "region_with_type": "Московская обл"
  },
  {
    "id": 480346,
    "city": "Лыткарино",
    "city_district_with_type": "",
    "federal_district": "Центральный",
    "geo_lat": "55.562933",
    "geo_lon": "37.944065",
    "street_with_type": "",
    "region_with_type": "Московская обл"
  },
  {
    "id": 480376,
    "city": "Домодедово",
    "city_district_with_type": "",
    "federal_district": "Центральный",
    "geo_lat": "55.440514",
    "geo_lon": "37.862184",
    "street_with_type": "",
    "region_with_type": "Московская обл"
  },
  {
    "id": 480508,
    "city": "Щекино",
    "city_district_with_type": "",
    "federal_district": "Центральный",
    "geo_lat": "54.000175",
    "geo_lon": "37.50035",
    "street_with_type": "ул Заводская",
    "region_with_type": "Тульская обл"
  },
  {
    "id": 480562,
    "city": "Тула",
    "city_district_with_type": "Зареченский р-н",
    "federal_district": "Центральный",
    "geo_lat": "54.204903",
    "geo_lon": "37.611713",
    "street_with_type": "наб Дрейера",
    "region_with_type": "Тульская обл"
  },
  {
    "id": 480620,
    "city": "Набережные Челны",
    "city_district_with_type": "",
    "federal_district": "Приволжский",
    "geo_lat": "55.743553",
    "geo_lon": "52.39582",
    "street_with_type": "",
    "region_with_type": "Респ Татарстан"
  },
  {
    "id": 480685,
    "city": "Руза",
    "city_district_with_type": "",
    "federal_district": "Центральный",
    "geo_lat": "55.600567",
    "geo_lon": "36.46763",
    "street_with_type": "ул Советская",
    "region_with_type": "Московская обл"
  },
  {
    "id": 480716,
    "city": "Туапсе",
    "city_district_with_type": "",
    "federal_district": "Южный",
    "geo_lat": "44.1104372",
    "geo_lon": "39.0825486",
    "street_with_type": "",
    "region_with_type": "Краснодарский край"
  },
  {
    "id": 480851,
    "city": "Цивильск",
    "city_district_with_type": "",
    "federal_district": "Приволжский",
    "geo_lat": "55.861034",
    "geo_lon": "47.465991",
    "street_with_type": "ул Павла Иванова",
    "region_with_type": "Чувашская республика - Чувашия"
  },
  {
    "id": 480876,
    "city": "Цимлянск",
    "city_district_with_type": "",
    "federal_district": "Южный",
    "geo_lat": "47.645972",
    "geo_lon": "42.10234",
    "street_with_type": "ул Азина",
    "region_with_type": "Ростовская обл"
  },
  {
    "id": 480907,
    "city": "Воскресенск",
    "city_district_with_type": "",
    "federal_district": "Центральный",
    "geo_lat": "55.465254",
    "geo_lon": "38.400364",
    "street_with_type": "",
    "region_with_type": "Московская обл"
  },
  {
    "id": 481018,
    "city": "Новороссийск",
    "city_district_with_type": "",
    "federal_district": "Южный",
    "geo_lat": "44.754715",
    "geo_lon": "37.724392",
    "street_with_type": "ул Школьная",
    "region_with_type": "Краснодарский край"
  },
  {
    "id": 481097,
    "city": "Орехово-Зуево",
    "city_district_with_type": "",
    "federal_district": "Центральный",
    "geo_lat": "55.491585",
    "geo_lon": "38.921288",
    "street_with_type": "",
    "region_with_type": "Московская обл"
  },
  {
    "id": 481162,
    "city": "Истра",
    "city_district_with_type": "",
    "federal_district": "Центральный",
    "geo_lat": "55.883136",
    "geo_lon": "36.826228",
    "street_with_type": "",
    "region_with_type": "Московская обл"
  },
  {
    "id": 481244,
    "city": "Нежинский",
    "city_district_with_type": "",
    "federal_district": "Приволжский",
    "geo_lat": "51.8111244",
    "geo_lon": "55.4709085",
    "street_with_type": "",
    "region_with_type": "Оренбургская обл"
  },
  {
    "id": 481313,
    "city": "Егорьевск",
    "city_district_with_type": "",
    "federal_district": "Центральный",
    "geo_lat": "55.383853",
    "geo_lon": "39.179671",
    "street_with_type": "",
    "region_with_type": "Московская обл"
  },
  {
    "id": 481323,
    "city": "Щёлково",
    "city_district_with_type": "",
    "federal_district": "Центральный",
    "geo_lat": "55.988838",
    "geo_lon": "38.127965",
    "street_with_type": "",
    "region_with_type": "Московская обл"
  },
  {
    "id": 481350,
    "city": "Трубчевск",
    "city_district_with_type": "",
    "federal_district": "Центральный",
    "geo_lat": "52.57991",
    "geo_lon": "33.764385",
    "street_with_type": "ул Брянская",
    "region_with_type": "Брянская обл"
  },
  {
    "id": 481467,
    "city": "Балашиха",
    "city_district_with_type": "",
    "federal_district": "Центральный",
    "geo_lat": "55.796339",
    "geo_lon": "37.938199",
    "street_with_type": "",
    "region_with_type": "Московская обл"
  },
  {
    "id": 481492,
    "city": "Мытищи",
    "city_district_with_type": "",
    "federal_district": "Центральный",
    "geo_lat": "55.98081",
    "geo_lon": "37.575666",
    "street_with_type": "ул Сельская",
    "region_with_type": "Московская обл"
  },
  {
    "id": 481499,
    "city": "Чехов",
    "city_district_with_type": "",
    "federal_district": "Центральный",
    "geo_lat": "55.244532",
    "geo_lon": "37.624561",
    "street_with_type": "ул Строителей",
    "region_with_type": "Московская обл"
  },
  {
    "id": 481603,
    "city": "Ломоносов",
    "city_district_with_type": "",
    "federal_district": "Северо-Западный",
    "geo_lat": "59.909761",
    "geo_lon": "29.775711",
    "street_with_type": "",
    "region_with_type": "г Санкт-Петербург"
  },
  {
    "id": 481608,
    "city": "Троицк",
    "city_district_with_type": "Троицкий округ",
    "federal_district": "Центральный",
    "geo_lat": "55.4847325",
    "geo_lon": "37.3077164",
    "street_with_type": "ул Садовая",
    "region_with_type": "г Москва"
  },
  {
    "id": 481725,
    "city": "Сочи",
    "city_district_with_type": "Лазаревский р-н",
    "federal_district": "Южный",
    "geo_lat": "43.743242",
    "geo_lon": "39.680419",
    "street_with_type": "",
    "region_with_type": "Краснодарский край"
  },
  {
    "id": 481818,
    "city": "Одинцово",
    "city_district_with_type": "",
    "federal_district": "Центральный",
    "geo_lat": "55.698513",
    "geo_lon": "37.330237",
    "street_with_type": "ул Вишневая",
    "region_with_type": "Московская обл"
  },
  {
    "id": 481865,
    "city": "Зарайск",
    "city_district_with_type": "",
    "federal_district": "Центральный",
    "geo_lat": "54.754142",
    "geo_lon": "38.692263",
    "street_with_type": "",
    "region_with_type": "Московская обл"
  },
  {
    "id": 481960,
    "city": "Тотьма",
    "city_district_with_type": "",
    "federal_district": "Северо-Западный",
    "geo_lat": "59.974724",
    "geo_lon": "42.763725",
    "street_with_type": "ул Ворошилова",
    "region_with_type": "Вологодская обл"
  },
  {
    "id": 481964,
    "city": "Тосно",
    "city_district_with_type": "",
    "federal_district": "Северо-Западный",
    "geo_lat": "59.539988",
    "geo_lon": "30.877432",
    "street_with_type": "пр-кт Ленина",
    "region_with_type": "Ленинградская обл"
  },
  {
    "id": 481985,
    "city": "Торжок",
    "city_district_with_type": "",
    "federal_district": "Центральный",
    "geo_lat": "57.04358",
    "geo_lon": "34.962234",
    "street_with_type": "ул Кирова",
    "region_with_type": "Тверская обл"
  },
  {
    "id": 482042,
    "city": "Торопец",
    "city_district_with_type": "",
    "federal_district": "Центральный",
    "geo_lat": "56.4978",
    "geo_lon": "31.635466",
    "street_with_type": "ул Соловьева",
    "region_with_type": "Тверская обл"
  },
  {
    "id": 482167,
    "city": "Лосино-Петровский",
    "city_district_with_type": "",
    "federal_district": "Центральный",
    "geo_lat": "55.94386",
    "geo_lon": "38.1518",
    "street_with_type": "",
    "region_with_type": "Московская обл"
  },
  {
    "id": 482203,
    "city": "Кашира",
    "city_district_with_type": "",
    "federal_district": "Центральный",
    "geo_lat": "54.713059",
    "geo_lon": "38.484051",
    "street_with_type": "ул Заречная",
    "region_with_type": "Московская обл"
  },
  {
    "id": 482283,
    "city": "Тольятти",
    "city_district_with_type": "",
    "federal_district": "Приволжский",
    "geo_lat": "53.5205667",
    "geo_lon": "49.3894799",
    "street_with_type": "",
    "region_with_type": "Самарская обл"
  },
  {
    "id": 482260,
    "city": "Люберцы",
    "city_district_with_type": "",
    "federal_district": "Центральный",
    "geo_lat": "55.654924",
    "geo_lon": "37.925093",
    "street_with_type": "",
    "region_with_type": "Московская обл"
  },
  {
    "id": 482329,
    "city": "Москва",
    "city_district_with_type": "Новомосковский округ",
    "federal_district": "Центральный",
    "geo_lat": "55.6095181",
    "geo_lon": "37.2182232",
    "street_with_type": "",
    "region_with_type": "г Москва"
  },
  {
    "id": 482372,
    "city": "Бор",
    "city_district_with_type": "",
    "federal_district": "Приволжский",
    "geo_lat": "56.356517",
    "geo_lon": "44.064575",
    "street_with_type": "",
    "region_with_type": "Нижегородская обл"
  },